Description,Location,Category,Sub-Category,Land Size(M2),Building Size(M2),Car Space,Bedrooms,Bathrooms,Longitude,Latitude,Condominum Name,Price(Php),Link
Rush Sale! 3Bedroom Condo Unit in McKinley Garden Villas 19Million,"McKinley Hill, Taguig",Condominium,"Condominium,3-bedroom",None,128,None,3,2,121.0553,14.53712,McKinley Garden Villas,19000000,https://www.lamudi.com.ph/rush-sale-3bedroom-condo-unit-in-mckinley-garden-v-166132665343.html
Starts at 13K/MO Pre Selling House & Lot in Bulacan/Pampanga - Single Detached,"Sapang Maisac, Mexico",House,"House,single-family-house",101,60,None,3,2,120.665111,15.169115,None,3700000,https://www.lamudi.com.ph/starts-at-13k-mo-pre-selling-house-lot-in-bulacan-16612669351.html
Pretty Bungalow House in Catalunan Grande Davao City,"Catalunan Grande, Davao",House,"House,single-family-house",100,75,None,3,2,125.5343474,7.0909386,None,3790000,https://www.lamudi.com.ph/pretty-bungalow-house-in-catalunan-grande-davao-ci-166126455849.html
Narvacan Ilocos Sur Farm lot For Sale (Along Brgy. Road),"Margaay, Narvacan",Land,"Land,agricutural-lot",6132,None,None,None,None,120.470266,17.43068,None,3066000,https://www.lamudi.com.ph/narvacan-farm-lot-for-sale-along-brgy-road-166126427180.html
Re-Opened Prime Beach Lot in Playa Laiya,"Laiya-Aplaya, San Juan",Land,"Land,beach-lot",537,None,None,None,None,121.379905,13.691466,None,20191200,https://www.lamudi.com.ph/re-opened-prime-beach-lot-in-playa-laiya-166123176043.html
"Interior Decorated 3 Bedroom Unit for Sale in The Peak Tower, Makati City","Salcedo Village, Makati",Condominium,"Condominium,3-bedroom",None,162,None,3,3,121.0206028,14.5596699,The Peak,29500000,https://www.lamudi.com.ph/interior-decorated-3-bedroom-unit-for-sale-in-the-16612243031.html
RUSH SALE! Residential Lot in Vista Grande,"Bulacao, Talisay",Land,"Land,residential-lot",511,None,None,None,None,123.832558,10.2650223,None,2033000,https://www.lamudi.com.ph/rush-sale-residential-lot-in-vista-grande-166121860491.html
"Acropolis Loyola | Lots for Sale in Matandang Balara, Quezon City","Matandang Balara, Quezon City",Land,"Land,residential-lot",300,None,None,None,None,122.2664748,14.5353804,None,80000000,https://www.lamudi.com.ph/acropolis-loyola-10-discount-hurry-up-commercial-166117642433.html
Brand New Spacious Modern Two Storey House For Sale in San Fernando,"Telabastagan, San Fernando",House,"House,single-family-house",240,440,2,4,5,120.635072,15.10712,None,19700000,https://www.lamudi.com.ph/brand-new-spacious-modern-two-storey-house-for-sal-166117196865.html
"Pre Selling Residential Farm Lot for sale in Antipolo, Rizal, Laguna","Antipolo, Rizal",Land,"Land,residential-lot",350,None,None,None,None,121.380557,14.114565,None,1960000,https://www.lamudi.com.ph/pre-selling-residential-farm-lot-166116635178.html
"Modern House and lot for sale in Ayala Alabang Village, Muntinlupa","Ayala Alabang, Muntinlupa",House,"House,single-family-house",570,900,6,6,6,121.022321,14.405874,None,235000000,https://www.lamudi.com.ph/modern-house-ayala-alabang-village-166116251893.html
Grand Eastwood Palazzo 2 Bedroom Upgraded Unit w/ Parking High Floor,"Bagumbayan, Quezon City",Condominium,"Condominium,double-bedroom",None,73,1,2,2,121.081903,14.605396,The Grand Eastwood Palazzo,8300000,https://www.lamudi.com.ph/grand-eastwood-palazzo-2-bedroom-upgraded-unit-w-p-166115673936.html
Single family for sale in PH MYP5 updated,"Casul, Sapang Dalaga",House,"House,single-family-house",None,None,None,1,None,123.559076,8.578166,None,1,https://www.lamudi.com.ph/single-family-for-sale-in-ph-myp5-166115362851.html
Single family for sale in PH MYP4,"Casul, Sapang Dalaga",House,"House,single-family-house",None,None,None,1,None,123.559076,8.578166,None,1,https://www.lamudi.com.ph/single-family-for-sale-in-ph-myp4-166115362692.html
Single family for sale in PH MYP3,"Casul, Sapang Dalaga",House,"House,single-family-house",None,None,None,1,None,123.559076,8.578166,None,1,https://www.lamudi.com.ph/single-family-for-sale-in-ph-myp3-166115359468.html
Single family for sale in PH MYP2,"Casul, Sapang Dalaga",House,"House,single-family-house",None,None,None,1,None,123.559076,8.578166,None,1,https://www.lamudi.com.ph/single-family-for-sale-in-ph-myp2-166115359297.html
condotel for sale in Ph via app,"A. Dalusag, General Emilio Aguinaldo",Condominium,"Condominium,dormitory",None,5,None,1,3,120.79782,14.148531,None,100000000,https://www.lamudi.com.ph/condotel-for-sale-in-ph-via-app-16611488564.html
condotel for sale in Philippines via App,"Southern Davao, Panabo",Condominium,"Condominium,dormitory",None,58,None,7,2,125.6539362,7.3289739,None,10000,https://www.lamudi.com.ph/condotel-for-sale-in-philippines-via-app-166114811236.html
"Beautiful lot for sale in Augusta, Sta. Rosa, Laguna! Clean title","Don Jose, Santa Rosa",Land,"Land,residential-lot",180,None,None,None,None,121.0735873,14.2615584,None,4700000,https://www.lamudi.com.ph/beautiful-lot-for-sale-in-augusta-sta-rosa-laguna-166114294586.html
3 Bedroom House and Lot For Sale,"San Roque, Paombong",House,"House,villas",80,85,2,3,2,120.7779085,14.8144443,None,4100000,https://www.lamudi.com.ph/3-bedroom-house-and-lot-for-sale-166113037826.html
National Road Property Future Will Be Commercial Cheap,"San Josef, Laur",Land,"Land,agricutural-lot",44000,None,None,None,None,121.147371,15.579175,None,8000000,https://www.lamudi.com.ph/national-road-property-future-will-be-commercial-c-166108324245.html
Rush For Sale House and Lot at Mulig Toril,"Mulig, Davao",House,"House,single-family-house",100,35.1,1,2,1,125.4649667,7.07583,None,2300000,https://www.lamudi.com.ph/rush-for-sale-house-and-lot-at-mulig-toril-166108197667.html
"3 Bedroom 3cr Townhouse for sale in Cainta, Rizal","San Roque, Cainta",House,"House,townhouse",76,125,1,3,3,121.119726,14.57923,None,5400000,https://www.lamudi.com.ph/3-bedroom-3cr-townhouse-cainta-rizal-16610588642.html
"For sale 3 Hectare Farm Lot In Calinan, Davao","Calinan, Davao",Land,"Land,agricutural-lot",30000,None,None,None,None,125.460735,7.19125,None,24000000,https://www.lamudi.com.ph/3-hectare-farm-lot-in-calinan-166105045680.html
"For Sale 1,500 sqm Lot in Ma-A, Davao City Ideal For Warehouses, Apartments","Ma-A, Davao",Land,"Land,commercial-lot",1500,None,None,None,None,125.5840299,7.0867489,None,15000000,https://www.lamudi.com.ph/1-500-sqm-lot-in-maa-davao-city-166098899289.html
"For Sale 2 Bedroom with Parking at Shang Residences at Wack Wack, Mandaluyong","Wack-Wack Greenhills, Mandaluyong",Condominium,"Condominium,double-bedroom",None,142,1,2,4,121.053333,14.592173,Shang Residences at Wack Wack,43624480,https://www.lamudi.com.ph/2-bedroom-with-parking-at-shang-residences-at-wack-16609816107.html
"3-Bedroom Condo for Sale in BGC Taguig City, 5th Floor, Verve Residences Tower 1","Fort Bonifacio, Taguig",Condominium,"Condominium,3-bedroom",None,184,1,3,3,121.050318,14.540867,Verve Residences,49000000,https://www.lamudi.com.ph/3-bedroom-condo-for-sale-in-bgc-taguig-city-5th-fl-166097915610.html
"Residential Lot for Sale in Antipolo Del Sur, Lipa City, Batangas","Antipolo del Sur, Lipa",Land,"Land,residential-lot",819,None,None,None,None,121.182,13.931,None,4872000,https://www.lamudi.com.ph/lot-for-sale-in-lipa-city-batangas-16609751792.html
"2-Bedroom Condo For Sale in BGC Taguig City, 10th Floor, Icon Residences Tower 2","Fort Bonifacio, Taguig",Condominium,"Condominium,double-bedroom",None,95,1,2,2,121.050318,14.540867,Icon Residences,20000000,https://www.lamudi.com.ph/2-bedroom-condo-for-sale-in-bgc-taguig-city-10th-f-166097421844.html
"For Sale Loft Type Unit in AMA Tower Residences, Mandaluyong City","Wack-Wack Greenhills, Mandaluyong",Condominium,"Condominium,loft-1",None,65,None,2,2,121.053333,14.592173,AMA Tower Residences,14456789,https://www.lamudi.com.ph/loft-type-condo-in-ortigas-mandaluyong-rent-to-own-166097150696.html
For Sale 2 Bedroom Unit in Ortigas Mandaluyong Rent to Own 500k Down 21k monthly,"Wack-Wack Greenhills, Mandaluyong",Condominium,"Condominium,double-bedroom",None,52,None,2,1,121.053333,14.592173,AMA Tower Residences,9876543.21,https://www.lamudi.com.ph/2bedroom-condo-in-ortigas-mandaluyong-rent-to-own-166097128794.html
For Sale 1-Bedroom in Mandaluyong Rent to Own 300k Down Move in 13k monthly,"Wack-Wack Greenhills, Mandaluyong",Condominium,"Condominium,single-bedroom",None,30,None,1,1,121.053333,14.592173,AMA Tower Residences,6400000,https://www.lamudi.com.ph/1bedroom-condo-in-ortigas-mandaluyong-rent-to-own-166097102893.html
"Rush Sale 5 Bedrooms, 5 T&B House in Camp 7, Baguio City, Benguet","Camp 7, Baguio",House,"House,single-family-house",191,300,2,5,5,120.600513,16.381866,None,21000000,https://www.lamudi.com.ph/7m-reduction-rush-sale-166096806850.html
Rent to Own Condo in Ortigas Mandaluyong Studio 250k Down Move in 11k Monthly,"Wack-Wack Greenhills, Mandaluyong",Condominium,"Condominium,studio",None,20,None,1,1,121.053333,14.592173,AMA Tower Residences,5400000,https://www.lamudi.com.ph/rent-to-own-condo-in-ortigas-mandaluyong-studio-25-166096200126.html
"Lot for Sale in Antel Grand Village Cavite near Evo City, Lancaster,Maple Grove","Bacao II, General Trias",Land,"Land,residential-lot",120,None,None,None,None,120.881337,14.410355,None,2250000,https://www.lamudi.com.ph/lot-for-sale-in-antel-grand-village-cavite-near-ev-166093710641.html
Commercial/Industrial Lot For Sale Along Tagaytay-Sta. Rosa Road Silang Cavite,"Tartaria, Silang",Land,"Land,commercial-lot",20823,None,None,None,None,121.0220452,14.202348,None,520575000,https://www.lamudi.com.ph/commercial-industrial-lot-for-sale-along-tagaytay-166090808466.html
For Sale! Commercial Lot in Cubao. (P. Tuazon side),"Cubao, Quezon City",Land,"Land,commercial-lot",413,None,None,None,None,121.0443089,14.6621443,None,80000000,https://www.lamudi.com.ph/for-sale-commercial-lot-in-cubao-p-tuazon-side-166090619181.html
"Mansion with 9 Bedrooms for Sale in Francisco, Tagaytay, Cavite","Francisco, Tagaytay",House,"House,villas",680,2000,7,9,10,120.98341,14.124996,None,85000000,https://www.lamudi.com.ph/mansion-with-9-bedrooms-for-sale-in-tagaytay-166090207190.html
Townhouse/House and Lot for Sale in San Juan City! 3-Storey with High Ceiling,"Greenhills, San Juan",House,"House,single-family-house",232,502,None,4,4,121.0468908,14.6011932,None,53815248.6,https://www.lamudi.com.ph/house-and-lot-for-sale-in-san-juan-city-3-storey-w-16608932475.html
"One Uptown Residences 2 Bedroom Condo for Sale in BGC,Fort Bonifacio,Taguig City","Fort Bonifacio, Taguig",Condominium,"Condominium,double-bedroom",None,68.6,None,2,2,121.050318,14.540867,ONE UPTOWN RESIDENCE,19000000,https://www.lamudi.com.ph/one-uptown-residences-2-bedroom-condo-for-sale-in-166089138030.html
"Lot for Sale in Calamba, Laguna at Mondia Nuvali!","Canlubang, Calamba",Land,"Land,residential-lot",471,None,None,None,None,121.0533622,14.1857173,None,13523001.63,https://www.lamudi.com.ph/lot-for-sale-in-calamba-laguna-at-mondia-nuvali-166088908790.html
"Pre-Selling 2-Storey Townhouse (Inner Unit) in Trece Martires, Cavite","Conchu, Trece Martires",House,"House,townhouse",50,50,None,1,1,120.882234,14.257876,None,2700000,https://www.lamudi.com.ph/2-storey-townhouse-inner-unit-in-trece-martires-166088450882.html
"Modern House and Lot for Sale in Ayala Alabang Village, Muntinlupa City","Ayala Alabang, Muntinlupa",House,"House,single-family-house",680,555,4,4,5,121.022321,14.405874,None,195000000,https://www.lamudi.com.ph/modern-house-and-lot-for-sale-in-ayala-alabang-vil-16608823650.html
"Bungalow house and lot for sale in Dasmarinas, Cavite",Dasmarinas,House,"House,single-family-house",100,40,None,3,1,120.9567904,14.322093,None,1200000,https://www.lamudi.com.ph/bungalow-house-for-sale-166087956634.html
Exclusive 389 sqm Residential Lot For Sale at Tagaytay Highlands,"Calabuso North, Tagaytay",Land,"Land,residential-lot",389,None,None,None,None,121.0233363,14.1414315,None,9800000,https://www.lamudi.com.ph/exclusive-residential-lot-at-tagaytay-highlands-166087643348.html
"Pre-selling Luxury Zen Home I Yang Unit at Alima Mabolo in Cebu City, Cebu","Mabolo, Cebu",House,"House,single-family-house",160,422,3,4,6,123.918231,10.31581,None,46172500,https://www.lamudi.com.ph/pre-selling-luxury-zen-home-i-yang-unit-at-alima-m-166087556319.html
"Pre-selling Luxury Zen Home I Yin Unit at Alima Mabolo in Cebu City, Cebu","Mabolo, Cebu",House,"House,single-family-house",160,422,3,4,6,123.918231,10.31581,None,49515950,https://www.lamudi.com.ph/pre-selling-luxury-zen-home-i-yin-unit-at-alima-ma-166087515399.html
Residential and farm Lot for sale in Tagaytay Highlands,"Calabuso North, Tagaytay",Land,"Land,residential-lot",590,None,None,None,None,121.0233363,14.1414315,None,10900000,https://www.lamudi.com.ph/residential-and-farm-lot-tagaytay-highlands-166087418869.html
Residential Lot for sale in The Grove at Tagaytay Highlands,"Sulpoc, Tanauan",Land,"Land,residential-lot",554,None,None,None,None,121.0655486,14.1400085,None,10700000,https://www.lamudi.com.ph/the-grove-at-tagaytay-highlands-166087266589.html
"Brandnew House- Single-Attached for sale in Eagle Crest, Baguio City","Bakakeng North, Baguio",House,"House,single-family-house",75,155,None,4,3,120.588941,16.39866,None,9500000,https://www.lamudi.com.ph/brandnew-house-single-attached-166083666226.html
Lupang Malapit sa Tagaytay! Klimang Tagaytay for Sale (Cold Weather),"Malabag, Silang",Land,"Land,residential-lot",300,None,None,None,None,120.968782,14.143115,None,2250000,https://www.lamudi.com.ph/lupang-malapit-sa-tagaytay-klimang-tagaytay-for-sa-166083141351.html
Elegant Puerto Real House & Lot for Sale in Puerto Real De Iloilo,"Tabuc Suba, Iloilo",House,"House,single-family-house",500,450,None,4,4,122.559096,10.731185,None,32000000,https://www.lamudi.com.ph/elegant-puerto-real-house-lot-for-sale-166082812495.html
RUSH SALE! Affordable 1BR Condo w/ Parking 1.8M Only (Negotiable),"Santolan, Pasig",Condominium,"Condominium,single-bedroom",None,18,None,1,1,121.087967,14.613073,Pasig Royale Mansion,1800000,https://www.lamudi.com.ph/rush-sale-affordable-1br-condo-w-parking-1-8m-only-166082158516.html
"City of San Fernando, Pampanga Residential Lot For Sale!","Magliman, San Fernando",Land,"Land,residential-lot",120,None,None,None,None,120.691918,15.4043,None,1712000,https://www.lamudi.com.ph/city-of-san-fernando-pampanga-residential-lot-for-166081313849.html
Lowest Down Payment! 2.5% Only to Move In 2BR unit for sale in Sorrento Oasis,"Rosario, Pasig",Condominium,"Condominium,double-bedroom",None,35.87,None,2,1,121.089097,14.588464,Sorrento Oasis,5498041,https://www.lamudi.com.ph/lowest-down-payment-2-5-only-to-move-in-166081164413.html
2 Bedroom For Sale in DMCI Rhapsody Residences,"Buli, Muntinlupa",Condominium,"Condominium,double-bedroom",None,53,None,2,2,121.049993,14.443527,Rhapsody Residences,4800000,https://www.lamudi.com.ph/2-bedroom-for-sale-in-dmci-raphosody-residences-16608115506.html
"For Sale : House and Lot in Las Pinas City at The Enclave Alabang! Nr. MCX, SLEX","Alabang, Muntinlupa",House,"House,single-family-house",467,414,2,3,4,121.037608,14.4179774,None,65000000,https://www.lamudi.com.ph/for-sale-house-and-lot-in-las-pinas-city-at-the-en-166080944784.html
The Enclave Alabang House and Lot for Sale in Las Pinas City! Sacrifice Sale!,"Alabang, Muntinlupa",House,"House,single-family-house",467,414,2,3,5,121.037608,14.4179774,None,65000000,https://www.lamudi.com.ph/the-enclave-alabang-house-and-lot-for-sale-in-las-166080944670.html
"JML - FOR SALE: 2,210 sqm Commercial Lot in Arca South, Taguig","Western Bicutan, Taguig",Land,"Land,commercial-lot",2210,None,None,None,None,121.036376,14.517219,None,1215500000,https://www.lamudi.com.ph/jml-for-sale-2-210-sqm-commercial-lot-in-arca-sout-166080679912.html
"Mira Single Detached House & Lot For Sale at Periveo in Lipa City, Batangas","Mabini, Lipa",House,"House,single-family-house",182.36,139.4,2,4,3,121.155483,13.895805,None,10029864,https://www.lamudi.com.ph/mira-single-detached-house-lot-for-sale-at-periveo-166080635362.html
"Lana Single Detached House & Lot For Sale at Periveo in Lipa City, Batangas","Mabini, Lipa",House,"House,single-family-house",186.58,129.8,2,4,3,121.155483,13.895805,None,9691680,https://www.lamudi.com.ph/lana-single-detached-house-lot-for-sale-at-periveo-166080634978.html
"BJS - FOR SALE: 512 sqm Residential Lot in Bel-Air 2 Village, Makati","Bel-Air, Makati",Land,"Land,residential-lot",512,None,None,None,None,121.026342,14.563933,None,220000000,https://www.lamudi.com.ph/bjs-for-sale-512-sqm-residential-lot-in-bel-air-2-166080559925.html
"Erin Single Detached House & Lot For Sale at Periveo in Lipa City, Batangas","Mabini, Lipa",House,"House,single-family-house",182.39,114.98,2,3,2,121.155483,13.895805,None,8712752,https://www.lamudi.com.ph/erin-single-detached-house-lot-for-sale-at-periveo-166080540914.html
House and Lot for Sale Las Pinas City at The Enclave Alabang! Nr. Ayala Alabang,"Alabang, Muntinlupa",House,"House,single-family-house",350,391,None,3,5,121.037608,14.4179774,None,55000000,https://www.lamudi.com.ph/house-and-lot-for-sale-las-pinas-city-at-the-encla-166080522057.html
2-Storey Modern House and Lot for sale in Las Pinas City at  The Enclave Alabang,"Alabang, Muntinlupa",House,"House,single-family-house",350,391,None,3,5,121.037608,14.4179774,None,55000000,https://www.lamudi.com.ph/2-storey-modern-house-and-lot-for-sale-in-las-pina-166080521742.html
"1 Hectare Commercial Lot on Naguillan Road, 20 mins drive to Baguio City",Sablan,Land,"Land,commercial-lot",10000,None,None,None,None,120.514961,16.5020711,None,27000000,https://www.lamudi.com.ph/1-hectare-commercial-lot-on-naguillan-road-20-mins-166080484832.html
"House and Lot for Sale at Rancho, Concepcion Dos, Marikina City","Concepcion Dos, Marikina",House,"House,single-family-house",264,360,None,5,4,121.119734,14.640389,None,16500000,https://www.lamudi.com.ph/house-and-lot-for-sale-at-rancho-166080398133.html
FOR SALE:  Gas Station with existing building,"Looc, Lapu-Lapu",Commercial,"Commercial,retail",1000,0,None,None,None,123.942064,10.300215,None,50000000,https://www.lamudi.com.ph/for-sale-gas-station-with-existing-building-166080273364.html
"RSO - FOR SALE: Condominium in One Rockwell West, Rockwell, Makati","Rockwell, Makati",Condominium,"Condominium,double-bedroom",None,93,1,2,2,121.036339,14.562949,One Rockwell,24000000,https://www.lamudi.com.ph/rso-for-sale-condominium-in-one-rockwell-west-rock-166080271146.html
"House and Lot 5 Bedrooms for Sale in Urduja Village, Caloocan City","Camarin, Caloocan",House,"House,single-family-house",240,320,2,5,4,121.03773,14.74393,None,10000000,https://www.lamudi.com.ph/house-and-lot-for-sale-in-urduja-village-caloocan-166080224086.html
"SJDM, Bulacan near Grotto Residential Lot","Gaya-Gaya, San Jose del Monte",Land,"Land,residential-lot",6534,None,None,None,None,121.0356795,14.7913736,None,33000000,https://www.lamudi.com.ph/sjdm-bulacan-near-grotto-residential-lot-166079983320.html
"3 Bedroom Bungalow House (Assume Balance) for Sale in Molino, Bacoor, Cavite","Molino III, Bacoor",House,"House,single-family-house",200,200,1,3,2,120.9777822,14.3981207,None,7310000,https://www.lamudi.com.ph/3-bedroom-bungalow-house-assume-balance-for-sale-i-166079870024.html
Island park phase 2-a | Residential lot for sale in Dasmarinas,"Paliparan II, Dasmarinas",Land,"Land,residential-lot",270,None,None,None,None,120.99031,14.30488,None,15000000,https://www.lamudi.com.ph/island-park-phase-2-a-166079528247.html
"White Sand Beach Lot Property for Sale in Calatagan, Batangas","Santa Ana, Calatagan",Land,"Land,beach-lot",400,0,None,None,None,120.654309,13.79875,None,17000000,https://www.lamudi.com.ph/best-beach-lot-in-calatagan-batangas-166079351261.html
350sqm House and lot with 3BR in Enclave Alabang is up for sale!,"Almanza Dos, Las Pinas",House,"House,single-family-house",350,391,None,3,5.5,121.0078767,14.4023926,None,55000000,https://www.lamudi.com.ph/350sqm-house-and-lot-with-3br-in-enclave-alabang-i-16607909482.html
Lowest Price in the Market! House and Lot in Enclave Alabang is for Sale!,"Almanza Dos, Las Pinas",House,"House,single-family-house",350,391,2,3,5.5,121.0078767,14.4023926,None,55000000,https://www.lamudi.com.ph/lowest-price-in-the-market-house-and-lot-in-enclav-166078992670.html
"ENCLAVE ALABANG HOUSE FOR SALE, Good deal Sacrifice Sale Daanghari House Alabang","Alabang, Muntinlupa",House,"House,single-family-house",467,414,None,3,5,121.037608,14.4179774,None,65000000,https://www.lamudi.com.ph/enclave-alabang-house-for-sale-good-deal-sacrifice-166078678356.html
"Sacrifice Sale, ALABANG HOUSE FOR SALE Enclave Alabang Daang Hari near MCX Exit","Alabang, Muntinlupa",House,"House,single-family-house",467,414,None,3,5,121.037608,14.4179774,None,65000000,https://www.lamudi.com.ph/sacrifice-sale-alabang-house-for-sale-enclave-alab-166078675687.html
"(Phase 3) Residential Lot for Sale at Colinas Verde in San del Monte, Bulacan","Tungkong Mangga, San Jose del Monte",Land,"Land,residential-lot",150,None,None,None,None,121.0961887,14.7844513,None,3525000,https://www.lamudi.com.ph/phase-3-residential-lot-for-sale-at-colinas-verde-166078657489.html
"(Phase 3A) Residential Lot for Sale at Colinas Verde in San del Monte, Bulacan","Tungkong Mangga, San Jose del Monte",Land,"Land,residential-lot",150,None,None,None,None,121.0961887,14.7844513,None,3525000,https://www.lamudi.com.ph/phase-3a-residential-lot-for-sale-at-colinas-verd-166078648949.html
"(Phase 3B) Residential Lot for Sale at Colinas Verde in San del Monte, Bulacan","Tungkong Mangga, San Jose del Monte",Land,"Land,residential-lot",150,None,None,None,None,121.0961887,14.7844513,None,3525000,https://www.lamudi.com.ph/phase-3b-residential-lot-for-sale-at-colinas-verd-166078637246.html
"The Enclave Alabang, 3BR House on 467sqm lot in Las Pinas City for sale!","Almanza Dos, Las Pinas",House,"House,single-family-house",467,414,None,3,5,121.0078767,14.4023926,None,65000000,https://www.lamudi.com.ph/the-enclave-alabang-3br-on-467sqm-lot-in-las-pi-as-166078631610.html
"(Phase 2) Residential Lot for Sale at Colinas Verdes in San del Monte, Bulacan","Tungkong Mangga, San Jose del Monte",Land,"Land,residential-lot",240,None,None,None,None,121.0961887,14.7844513,None,5640000,https://www.lamudi.com.ph/phase-2-residential-lot-for-sale-at-colinas-verde-166078629583.html
"(Phase 1) Residential Lot at Colinas Verdes in San del Monte, Bulacan","Tungkong Mangga, San Jose del Monte",Land,"Land,residential-lot",150,None,None,None,None,121.0961887,14.7844513,None,3525000,https://www.lamudi.com.ph/phase-1-residential-lot-at-colinas-verdes-in-san-166078618968.html
Good Buy! The Enclave Alabang House for Sale along Daang Hari near Ayala Alabang,"Alabang, Muntinlupa",House,"House,single-family-house",350,391,None,3,5,121.037608,14.4179774,None,55000000,https://www.lamudi.com.ph/good-buy-the-enclave-alabang-house-for-sale-along-166078519259.html
Alabang House and Lot for Sale ENCLAVE HOUSE near Muntinlupa and Ayala Alabang,"Alabang, Muntinlupa",House,"House,single-family-house",350,391,None,3,5,121.037608,14.4179774,None,55000000,https://www.lamudi.com.ph/alabang-house-and-lot-for-sale-enclave-house-near-16607851862.html
"Galleria Residences Studio - Starts at 9,000+/month Preselling Condo","North Reclamation Area, Cebu",Condominium,"Condominium,studio",None,37,None,1,1,123.9157609,10.3084189,Galleria Residences,8468400,https://www.lamudi.com.ph/galleria-residences-studio-starts-at-9-000-month-p-166074684351.html
"Rent to Own 3 Bedroom Condo Unit for Sale in St. Moritz Private Estate, Taguig","McKinley Hill, Taguig",Condominium,"Condominium,3-bedroom",None,113.5,None,3,4,121.050318,14.540867,St. Moritz Private Estate,30600000,https://www.lamudi.com.ph/rent-to-own-3-bedroom-condo-unit-for-sale-in-st-mo-166073016640.html
"Northview 1, Batasan - San Mateo Road, QC LOT with old house for SALE","Batasan Hills, Quezon City",Land,"Land,residential-lot",360,None,None,None,None,121.096563,14.681641,None,11000000,https://www.lamudi.com.ph/northview-1-batasan-san-mateo-road-qc-lot-with-old-16607293965.html
Jardin de Memoria Outer Lawn Lot (A Memorial Park for sale in Alfonso),"Taywanak Ilaya, Alfonso",Land,"Land,memorial-lot",2.5,None,None,None,None,120.8501436,14.14474956,None,179200,https://www.lamudi.com.ph/jardin-de-memoria-outer-lawn-lot-a-memorial-park-i-166072939240.html
"Jardin de Memoria Lawn Lot Inner For Sale in Alfonso, Cavite","Barangay IV, Alfonso",Land,"Land,memorial-lot",2.5,None,None,None,None,120.85293,14.137115,None,145600,https://www.lamudi.com.ph/jardin-de-memoria-lawn-lot-inner-166072721813.html
"Jardin De Memoria (Memorial Park) - Inner Lawn Lot for sale, Alfonso, Cavite","Barangay IV, Alfonso",Land,"Land,memorial-lot",2.5,None,None,None,None,120.85293,14.137115,None,145600,https://www.lamudi.com.ph/jardin-de-memoria-memorial-park-inner-lawn-lot-alf-16607267075.html
Alcoves 1BR Condominium unit for Sale 65 sqm in Cebu City,"Mabolo, Cebu",Condominium,"Condominium,single-bedroom",None,65,1,1,1,123.918231,10.31581,The Alcoves,15500000,https://www.lamudi.com.ph/alcoves-1br-unit-for-sale-65-sqm-16607261246.html
Good Investment Commercial Property in Quezon Avenue for Sale,"Quezon Avenue, Quezon City",Commercial,"Commercial,building",2000,3301.9,None,None,None,121.0232,14.63518,None,400000000,https://www.lamudi.com.ph/good-investment-commercial-property-in-quezon-aven-166071952629.html
"Tropical Modern Home for Sale in The Enclave Alabang, Las Pinas City","Almanza Dos, Las Pinas",House,"House,single-family-house",467,414,None,3,5,121.0078767,14.4023926,None,65000000,https://www.lamudi.com.ph/tropical-modern-home-for-sale-in-the-enclave-alaba-166071899429.html
"1,660 sam Farm Lot for Sale in Calabnugan, Sibulan, Negros Oriental","Calabnugan, Sibulan",Land,"Land,agricutural-lot",1660,None,None,None,None,123.261786,9.3420884,None,9000000,https://www.lamudi.com.ph/1-660-sam-farm-lot-for-sale-in-calabnugan-sibulan-166071698568.html
Villas for sale in Philippines,Sinacaban,House,"House,villas",None,None,None,None,None,123.8228346,8.3008627,None,1,https://www.lamudi.com.ph/villas-for-sale-in-philippines-16607156546.html
"2BR House for Sale at New Fields Phase 2 in Manna East, Teresa, Rizal | Futura by Fil...","Dalig, Teresa",House,"House,single-family-house",90,43.36,None,2,1,121.214021,14.566756,None,3600000,https://www.lamudi.com.ph/2br-house-and-lot-for-sale-at-new-fields-phase-2-i-166070880222.html
Commercial/Industrial Lot For Sale in Gen. Trias Cavite.,"San Francisco, General Trias",Land,"Land,commercial-lot",8522,None,None,None,None,120.918355,14.312446,None,102264000,https://www.lamudi.com.ph/commercial-industrial-lot-for-sale-in-gen-trias-ca-166070522293.html
"House and lot for sale in Camella Silang, Cavite w/ Tagaytay weather! Rush sale!","Buho, Silang",House,"House,single-family-house",105,83,None,4,3,120.959807,14.14031,None,6300000,https://www.lamudi.com.ph/house-and-lot-for-sale-in-camella-silang-cavite-w-16606998474.html
Western style House and Lot for Sale!,"Catalunan Pequeno, Davao",House,"House,single-family-house",464,380,None,6,3,125.5237999,7.0743578,None,25000000,https://www.lamudi.com.ph/western-style-house-and-lot-for-sale-166069510776.html
Brandnew modern contemporary house and lot for sale!,"Cuayan, Angeles",House,"House,single-family-house",154,200,None,3,3,120.579214,15.13943,None,14200000,https://www.lamudi.com.ph/brandnew-modern-contemporary-house-and-lot-for-sal-16606901765.html
"For Sale 3 Bedroom Unit at The Albany Luxury Residences, Taguig City","Fort Bonifacio, Taguig",Condominium,"Condominium,3-bedroom",None,134.5,None,3,4,121.050318,14.540867,The Albany Luxury Residences ,36600000,https://www.lamudi.com.ph/for-sale-3-bedroom-condo-unit-in-the-albany-luxury-166067303011.html
For Sale Pacdal House near Circle Park in Baguio City,"Pacdal, Baguio",House,"House,townhouse",160,350,2,8,4,120.619739,16.42835,None,15000000,https://www.lamudi.com.ph/pacdal-house-duplex-near-circle-park-baguio-city-166065833739.html
"For Sale Overlooking House and Lot in Inarawan, Antipolo City","Inarawan, Antipolo",House,"House,single-family-house",240,180,None,3,3,121.240436,14.670622,None,14500000,https://www.lamudi.com.ph/overlooking-house-and-lot-in-antipolo-166064933797.html
"GH - For Sale: 3 Bedroom Unit in Grand Hyatt Manila Residences, BGC, Taguig","Fort Bonifacio, Taguig",Condominium,"Condominium,3-bedroom",None,300,2,3,3,121.050318,14.540867,Grand Hyatt Manila,105000000,https://www.lamudi.com.ph/gh-for-sale-3-bedroom-unit-in-grand-hyatt-manila-r-166063553543.html
"2Bedroom Rent to Own near BGC,Makati,Ortigas for Sale Unit 34NO Axis Residences","Barangka Ilaya, Mandaluyong",Condominium,"Condominium,double-bedroom",None,52,None,2,2,121.04641,14.571338,Axis Residences,9209201,https://www.lamudi.com.ph/2bedroom-rent-to-own-near-bgc-makati-ortigas-for-s-166062936214.html
"Condo near BGC,Makati,&Ortigas Studio Unit 34S Axis Residences Rent to Own","Buayang Bato, Mandaluyong",Condominium,"Condominium,studio",None,24,None,1,1,121.051068,14.569686,Axis Residences,4320129,https://www.lamudi.com.ph/condo-near-bgc-makati-ortigas-studio-unit-21l-axis-166062899951.html
"For sale Studio Condominium unit Near NAIA Airport, Paranaque City","Merville, Paranaque",Condominium,"Condominium,studio",None,32.5,None,1,1,121.0366406,14.49966341,Woodsville Crest,6600000,https://www.lamudi.com.ph/for-sale-studio-unit-near-naia-airport-para-aque-c-166062605863.html
ADG - FOR SALE: Old House along D Tuazon Sta. Mesa Heights QC,"Maharlika, Quezon City",Land,"Land,residential-lot",800,None,None,None,None,120.996952,14.633569,None,165000000,https://www.lamudi.com.ph/adg-for-sale-old-house-along-d-tuazon-sta-mesa-hei-166062480144.html
Pre-selling 1 Bedroom Condo at the back of Robinsons Galleria Cebu Mall near SRP,"Cogon Ramos, Cebu",Condominium,"Condominium,single-bedroom",None,40.5,None,1,1,123.883279,10.3380996,galleria residences cebu,8900000,https://www.lamudi.com.ph/pre-selling-1-bedroom-condo-at-the-back-of-robinso-166062473777.html
Cubao Lot for Sale in Quezon City with Existing Bungalow House Nr. Farmers Plaza,"Cubao, Quezon City",Land,"Land,residential-lot",600,None,None,None,None,121.0572,14.61777,None,78000000,https://www.lamudi.com.ph/cubao-lot-for-sale-in-quezon-city-with-existing-bu-166061873149.html
brandnew modern tropical house for sale!,"Cuayan, Angeles",House,"House,single-family-house",154,200,2,4,4,120.579214,15.13943,None,13500000,https://www.lamudi.com.ph/brandnew-modern-tropical-house-for-sale-166060941624.html
Commercial/Residential Lot For Sale in Tagaytay.  8 Hectare,"Dapdap East, Tagaytay",Land,"Land,agricutural-lot",80561,None,None,None,None,121.0291993,14.1558352,None,523646500,https://www.lamudi.com.ph/commercial-residential-lot-for-sale-in-tagaytay-8-16606058872.html
Lot Only Subd. at Ronda Cebu,"Santa Cruz, Ronda",Land,"Land,residential-lot",100,None,None,None,None,123.4146169,10.0180937,None,500000,https://www.lamudi.com.ph/lot-only-subd-at-ronda-cebu-166057864298.html
Mirala Nuvali Lot For Sale 351sqm,"Canlubang, Calamba",Land,"Land,residential-lot",351,None,None,None,None,121.0533622,14.1857173,None,10881000,https://www.lamudi.com.ph/mirala-nuvali-lot-for-sale-351sqm-166055961597.html
Beach residences Playa Laiya,"Laiya-Ibabao, San Juan",Land,"Land,residential-lot",286,None,None,None,None,121.422891,13.673186,None,9581000,https://www.lamudi.com.ph/beach-residences-playa-laiya-166055783798.html
"For Sale: 4 Bedroom Florentine House at Diamond Heights Subdivision, Davao City","Communal, Davao",House,"House,single-family-house",80,77.67,1,4,3,125.6287105,7.1418209,None,4426480.59,https://www.lamudi.com.ph/for-sale-4-bedroom-florentine-house-at-diamond-hei-166055743015.html
The Hampton place at Greenwoods South,"Pallocan Kanluran, Batangas City",House,"House,villas",120,75,None,3,2,121.0703122,13.7559187,None,4925000,https://www.lamudi.com.ph/the-hampton-place-at-greenwoods-south-166055673237.html
One Pontefino 1 bedroom for sale,"Pallocan Silangan, Batangas City",Condominium,"Condominium,single-bedroom",None,41.2,None,1,1,121.0799614,13.752805,SOHO unit,5562000,https://www.lamudi.com.ph/one-pontefino-166055612299.html
Pontefino Estates 3 bedroom for sale,"Pallocan Silangan, Batangas City",House,"House,villas",220,220,None,3,4,121.0799614,13.752805,None,17500000,https://www.lamudi.com.ph/pontefino-estates-166055525786.html
The Premium Inland Resort Condominiums,"Tibig, Lipa",Condominium,"Condominium,double-bedroom",None,40.26,None,2,1,121.2079656,13.9504093,Maculot/ treeline/ sunset,6541000,https://www.lamudi.com.ph/the-premium-inland-resort-condominiums-166055444112.html
High end lot in Forbes States Lipa,"Inosloban, Lipa",Land,"Land,residential-lot",487,None,None,None,None,121.1701226,13.9775271,None,14034172,https://www.lamudi.com.ph/high-end-lot-in-forbes-states-lipa-166055387064.html
The Glens San Pedro Laguna For sale House and Lot,"San Antonio, San Pedro",House,"House,single-family-house",100,80,None,3,2,121.0433415,14.3669314,None,6000000,https://www.lamudi.com.ph/the-glens-san-pedro-laguna-166055284258.html
"Commercial Warehouse and Lot for Sale in Catmon, Malabon","Catmon, Malabon",Commercial,"Commercial,warehouse",1347,684,None,None,None,120.9602737,14.6696392,None,38000000,https://www.lamudi.com.ph/684sqm-warehouse-for-sale-in-catmon-malabon-166055222318.html
"For Sale: Elin Model Townhouse at El Pueblo Del Rio in Sta. Maria City, Bulacan","Cay Pombo, Santa Maria",House,"House,townhouse",44,38.4,1,2,1,120.9778775,14.8531313,None,1380000,https://www.lamudi.com.ph/for-sale-elin-model-townhouse-at-el-pueblo-del-rio-166054811731.html
"For Sale Skyline Premiere 2-Bedroom Unit - One Balete Compound, Quezon City","Kaunlaran, Quezon City",Condominium,"Condominium,double-bedroom",None,153,2,2,2,121.04641,14.617893,Skyline Premiere,32000000,https://www.lamudi.com.ph/skyline-premiere-2br-unit-one-balete-compound-166054654221.html
"For Sale: 2 Bedroom Unit at Midori Located in Santo Tomas City, Batangas","San Antonio, Santo Tomas",Condominium,"Condominium,double-bedroom",None,50,None,2,1,121.161986,14.121415,Midori ,2744000,https://www.lamudi.com.ph/for-sale-2-bedroom-unit-at-midori-located-in-santo-166054351019.html
"For Sale: Bettina IU Select at Bria Homes Montalban Located at Rodriguez, Rizal","San Jose, Rodriguez",House,"House,townhouse",36,44,1,2,1,121.136064,14.751305,None,1933000,https://www.lamudi.com.ph/for-sale-bettina-iu-select-at-bria-homes-montalban-166053346632.html
"For Sale: B-Series House at Bria Homes Montalban Located at Rodriguez, Rizal","San Jose, Rodriguez",House,"House,townhouse",87,44,1,2,1,121.136064,14.751305,None,3137000,https://www.lamudi.com.ph/for-sale-b-series-house-at-bria-homes-montalban-lo-166053346368.html
For Sale: Bettina Prime House at Bria Homes Montalban Located at Rodriguez Rizal,"San Jose, Rodriguez",House,"House,townhouse",88,44,1,2,1,121.1324148,14.74310662,None,3157000,https://www.lamudi.com.ph/for-sale-bettina-prime-house-at-bria-homes-montalb-166053300567.html
Tagaytay Forbes - Two houses in a combined a 240 SQM lot!,"Iruhin South, Tagaytay",House,"House,single-family-house",240,130,None,3,3,121.0077105,14.1272957,None,11000000,https://www.lamudi.com.ph/tagaytay-forbes-two-houses-in-a-combined-a-240-sqm-166053253478.html
"ESSENSA 3BR FOR SALE: 290 sqm, Nicely Interiored, 3 parking, P95M negotiable","Fort Bonifacio, Taguig",Condominium,"Condominium,3-bedroom",None,290,3,3,5,121.050318,14.540867,Essensa East Forbes,95000000,https://www.lamudi.com.ph/essensa-3br-for-sale-290-sqm-nicely-interiored-3-p-166050597258.html
"Park Triangle Corporate Plaza: Whole Flr Office Space for Sale: 1,645m2, 35 prkg","Fort Bonifacio, Taguig",Commercial,"Commercial,offices",0,1645,35,None,None,121.050318,14.540867,None,630000000,https://www.lamudi.com.ph/park-triangle-corporate-plaza-whole-flr-office-spa-166050424239.html
"Park Triangle Corporate Plaza: Office Space for Sale: 150 sqm, 2 parking, P41.5M","Fort Bonifacio, Taguig",Commercial,"Commercial,offices",0,150,None,None,None,121.050318,14.540867,None,41500000,https://www.lamudi.com.ph/park-triangle-corporate-plaza-office-space-for-sal-166050373564.html
2 bedroom with parking condo for sale in oak harbor near okada,"Don Galo, Paranaque",Condominium,"Condominium,double-bedroom",None,97,1,2,2,120.9798055,14.50599261,Oak Harbor Residences,19500000,https://www.lamudi.com.ph/2-bedroom-with-parking-condo-for-sale-near-okada-166049371463.html
"Brand New House for Sale near Ayala Marquee Mall in Angeles City, Pampanga!","Cuayan, Angeles",House,"House,single-family-house",176,211,None,4,4,120.579214,15.13943,None,13000000,https://www.lamudi.com.ph/brand-new-house-for-sale-near-ayala-marquee-mall-i-166047004713.html
"LOT Near Tiongson Grocery and Dept Store - Campo Sioco, Baguio Lot For Sale","Santo Rosario, Baguio",Land,"Land,residential-lot",407,None,None,None,None,120.5872452,16.4009423,None,6919000,https://www.lamudi.com.ph/lot-near-tiongson-grocery-and-dept-store-campo-sio-166046997242.html
Brand New Modern Industrial Retro Residential House with Sauna and Pool!,"Cuayan, Angeles",House,"House,single-family-house",240,330,None,4,6,120.579214,15.13943,None,22500000,https://www.lamudi.com.ph/brand-new-modern-industrial-retro-residential-hous-166046941189.html
Brand New Modern Tropical Industrial Theme House,"Cuayan, Angeles",House,"House,single-family-house",154,200,None,3,4,120.579214,15.13943,None,13500000,https://www.lamudi.com.ph/brand-new-modern-tropical-industrial-theme-house-166046866111.html
For sale Farm lot in Bagac country farm highlands,"Binuangan, Bagac",Land,"Land,agricutural-lot",500,None,None,None,None,120.419994,14.512086,None,2500000,https://www.lamudi.com.ph/farm-lot-in-bagac-country-farm-highlands-166045786467.html
House and Lot For Sale (Corner Lot) 1 Unit Left!,"Amparo, Pavia",House,"House,single-family-house",102,110,None,3,2,122.5224708,10.780516,None,4200000,https://www.lamudi.com.ph/house-and-lot-for-sale-corner-lot-1-unit-left-166045616797.html
Baguio Condo-Type Bungalow House for Sale!!!,"Dontogan, Baguio",House,"House,single-family-house",100,150,None,4,3,120.573056,16.380265,None,9000000,https://www.lamudi.com.ph/condo-type-bungalow-for-sale-166040925559.html
For Sale Brand New Single Home in Congressional Avenue Quezon City,"Congressional Avenue, Quezon City",House,"House,single-family-house",240,400,None,4,4,121.031,14.66588,None,39000000,https://www.lamudi.com.ph/brandnew-single-home-in-congressional-avenue-qc-166040811561.html
Modern Townhouse in Mandaluyong For Sale,"Vergara, Mandaluyong",House,"House,townhouse",130,50,2,3,2,121.024192,14.576533,None,15000000,https://www.lamudi.com.ph/modern-townhouse-in-mandaluyong-for-sale-166039980451.html
"For Sale: 2-BR House in Camella Springville Executive, Molino, Bacoor, Cavite","Molino III, Bacoor",House,"House,single-family-house",110,84,1,2,2,120.9777822,14.3981207,None,4500000,https://www.lamudi.com.ph/for-sale-2-br-house-in-camella-springville-executi-166039729594.html
"Rent to own 2 Bedroom Condo Unit in Mactan, Cebu, near Resorts","Maribago, Lapu-Lapu",Condominium,"Condominium,double-bedroom",None,37.24,None,2,1,123.998707,10.290415,Bayanihan Flats Mactan 2,2630000,https://www.lamudi.com.ph/rent-to-own-2-bedroom-condo-unit-in-mactan-cebu-ne-166039355519.html
"2 Bedroom Townhouse For Sale in Isabel Terraces, Rodriguez, Rizal","San Jose, Rodriguez",House,"House,townhouse",51,54,None,2,1,121.136064,14.751305,None,3232941,https://www.lamudi.com.ph/house-and-lot-for-sale-2bedroom-1bathroom-166038693086.html
"Luxury ""Bespoke"" Kiara House for Sale inside the Village of Taguig City","Bambang, Taguig",House,"House,townhouse",158,220,4,3,3,121.06934,14.524033,None,48128734.17,https://www.lamudi.com.ph/luxury-bespoke-kiara-house-for-sale-inside-the-vil-166037574635.html
2BR Axis Residences|5% Early Move In Promo|P600K Discount!,"Buayang Bato, Mandaluyong",Condominium,"Condominium,double-bedroom",None,51.82,None,2,2,121.051068,14.569686,Axis Residences,9636422,https://www.lamudi.com.ph/2br-axis-residences-5-early-move-in-promo-p600k-di-166037398934.html
"Modern Fully Furnished Townhouse For Sale in Banilad, Cebu City","Banilad, Cebu",House,"House,townhouse",67,110,None,3,2,123.91229,10.345495,None,9000000,https://www.lamudi.com.ph/modern-townhouse-subdivision-16603698531.html
"Brand New Modern Tropical House For Sale near CLark, Angeles, Pampanga",Angeles,House,"House,single-family-house",154,200,2,3,4,120.6134411,15.139882,None,13500000,https://www.lamudi.com.ph/brand-new-modern-tropical-house-for-sale-near-clar-166036842134.html
"M Residences Taguig City, House for Sale in Mahogany Place 3","Bambang, Taguig",House,"House,single-family-house",198,304,2,2,2,121.06934,14.524033,None,55000000,https://www.lamudi.com.ph/m-residences-taguig-house-for-sale-mahogany-place-166036127529.html
For Sale House and Lot with swimming pool in Italia 500 BF Resort Las Pinas,"Talon Dos, Las Pinas",House,"House,single-family-house",413,500,2,4,4,120.985214,14.438526,None,38000000,https://www.lamudi.com.ph/modern-house-and-lot-with-swimming-pool-in-italia-166032176111.html
For Sale High-end 35 sqm Studio Unit with Parking in Makati - Century Spire,"Poblacion, Makati",Condominium,"Condominium,studio",None,35.29,1,1,1,121.0275016,14.5570169,Century Spire by Armani Casa,10576029.54,https://www.lamudi.com.ph/high-end-35-sqm-studio-unit-with-parking-in-makati-166031244945.html
Farm/Agricultural Lot For Sale in Mendez Cavite.  Near Tagaytay,"Palocpoc I, Mendez",Land,"Land,agricutural-lot",5716,None,None,None,None,120.87596,14.13508,None,22864000,https://www.lamudi.com.ph/farm-agricultural-lot-for-sale-in-mendez-cavite-ve-166030612478.html
"For Sale: 4 Bedroom House & Lot in Greenland Executive Village, San Mateo, Rizal","Ampid I, San Mateo",House,"House,single-family-house",102,145,2,4,3,121.121566,14.681735,None,9200000,https://www.lamudi.com.ph/for-sale-4-bedroom-house-and-lot-in-executive-vill-166030093687.html
For Sale Overlooking 5-Bedroom Villa Located in Sunny Hills Talamban Cebu City.,"Talamban, Cebu",House,"House,villas",2000,700,5,5,5,123.911374,10.36171,None,57700000,https://www.lamudi.com.ph/for-sale-overlooking-5-bedroom-villa-located-in-su-166029834589.html
1 Bedroom Park Avenue BGC for Sale,"Fort Bonifacio, Taguig",Condominium,"Condominium,single-bedroom",None,37.5,1,1,1,121.0632793,14.5139759,Park Avenue,13000000,https://www.lamudi.com.ph/1-bedroom-park-avenue-bgc-for-sale-166029729748.html
"Baguio City Loakan Road Prime Residential Vacant Lot for Sale, 557  SQM","Loakan Proper, Baguio",Land,"Land,residential-lot",557,None,None,None,None,120.616748,16.377905,None,15460000,https://www.lamudi.com.ph/baguio-city-loakan-road-prime-residential-vacant-l-166029655749.html
"Elegant Modern Villa for Sale at Vie at Southern Plains, Calamba","Canlubang, Calamba",House,"House,villas",460,297,3,4,4,121.0533622,14.1857173,None,55000000,https://www.lamudi.com.ph/elegant-modern-villa-for-sale-at-laguna-16602931411.html
"Townhouse for sale in Georgia Residences, Minglanilla, Cebu","Calajo-An, Minglanilla",House,"House,townhouse",95.6,88.85,None,4,3,123.8027106,10.2405482,None,7277852.67,https://www.lamudi.com.ph/georgia-residences-minglanilla-cebu-166028984159.html
"Batasan Hills, Sunnyside Heights 3 Bedrooms House and Lot For Sale, Quezon City","Batasan Hills, Quezon City",House,"House,single-family-house",133,80,2,3,2,121.096563,14.681641,None,8400000,https://www.lamudi.com.ph/batasan-hills-sunnyside-heights-3bedrooms-house-an-166028816385.html
"Commercial Lot for Sale in Grace Park East, Caloocan City along EDSA","Grace Park East, Caloocan",Land,"Land,commercial-lot",625,None,None,None,None,120.9905434,14.6514006,None,237500000,https://www.lamudi.com.ph/commercial-lot-for-sale-in-caloocan-city-along-eds-166028391169.html
"Galoc Beach lot for sale in Galoc, Culion, Palawan","Galoc, Culion",Land,"Land,beach-lot",2400000,None,None,None,None,119.880757,11.914903,None,2400000000,https://www.lamudi.com.ph/galoc-beach-166028384340.html
"For Sale: House and Lot in Marikina City, Woodridge Heights!","Concepcion Uno, Marikina",House,"House,single-family-house",207,288,3,3,3,121.105875,14.649665,None,28000000,https://www.lamudi.com.ph/for-sale-house-and-lot-in-marikina-city-woodridge-166028240770.html
Ayala Alabang Village House and Lot for Sale in Muntinlupa City!,"Ayala Alabang, Muntinlupa",House,"House,single-family-house",784,1350,8,9,None,121.022321,14.405874,None,420000000,https://www.lamudi.com.ph/ayala-alabang-village-house-and-lot-for-sale-in-mu-16602816438.html
"Tagaytay Heights House and Lot for Sale in Tagaytay, Cavite","Kaybagal South, Tagaytay",House,"House,single-family-house",507,675.25,2,6,5,120.9331771,14.0937467,None,58000000,https://www.lamudi.com.ph/tagaytay-heights-house-and-lot-for-sale-in-tagayta-166028138129.html
"House and Lot For Sale In San Jose Village 2, Binan, Laguna","Binan, Binan",House,"House,single-family-house",142,120,1,3,4,121.0539924,14.2703263,None,6200000,https://www.lamudi.com.ph/house-and-lot-for-sale-in-san-jose-village-2-binan-166027778414.html
5 Bedroom Single Attached in The Villages at Lipa,"Bugtong Na Pulo, Lipa",House,"House,single-family-house",150,150,None,5,4,121.1705877,14.0042716,None,7508036,https://www.lamudi.com.ph/5-bedroom-single-attached-in-the-villages-at-lipa-166027471826.html
Luxury 2BR For Sale|The Residences at The Westin Sonata Place,"Wack-Wack Greenhills, Mandaluyong",Condominium,"Condominium,double-bedroom",None,157,2,2,2,121.053333,14.592173,The Residences at The Westin Manila Sonata,52949693,https://www.lamudi.com.ph/the-residences-at-the-westin-sonata-place-luxury-2-166027459280.html
7.5% Move In|2BR 60sqm in BGC |Pet Friendly Building|10% Discount For Sale,"Fort Bonifacio, Taguig",Condominium,"Condominium,double-bedroom",None,60,None,2,2,121.0494,14.54595,The Trion Towers,17905470,https://www.lamudi.com.ph/2br-60sqm-in-bgc-5-move-in-pet-friendly-building-1-166027421191.html
"For Sale: 176 sqm  at Southfield Village in Dasmarinas City, Cavite","Salitran I, Dasmarinas",Land,"Land,residential-lot",176,None,None,None,None,120.93635,14.357185,None,3000000,https://www.lamudi.com.ph/for-sale-176-sqm-at-southfield-village-in-dasmari-166027267927.html
"51.8 sqm, 2 Bedroom Condo Unit For Sale at Axis Residences in Mandaluyong City","Buayang Bato, Mandaluyong",Condominium,"Condominium,double-bedroom",None,51.8,None,2,2,121.051068,14.569686,Axis Residences,8636422,https://www.lamudi.com.ph/51-8-sqm-2-bedroom-condo-unit-for-sale-at-axis-res-166027068595.html
"1 Bedroom Condominium RFO For Sale at Trion Towers BGC, Taguig City","Fort Bonifacio, Taguig",Condominium,"Condominium,single-bedroom",None,37.5,None,1,1,121.0494379,14.54595709, Trion Towers,10840675,https://www.lamudi.com.ph/1-bedroom-condominium-rfo-for-sale-at-trion-towers-166026999512.html
Residential Lot Property for Sale in Brgy. Cansojong Talisay Cebu | 125 sqm,"Cansojong, Talisay",Land,"Land,residential-lot",125,None,None,None,None,123.845554,10.252439,None,3125000,https://www.lamudi.com.ph/residential-lot-property-for-sale-in-brgy-cansojon-166026930585.html
Residential Lot Property for Sale in Brgy. Cansojong Talisay Cebu | 130 sqm,"Cansojong, Talisay",Land,"Land,residential-lot",130,None,None,None,None,123.844793,10.253488,None,3250000,https://www.lamudi.com.ph/residential-lot-property-for-sale-in-brgy-cansojon-166026906740.html
Residential Lot Property for Sale in Brgy. Cansojong Talisay Cebu | 185 sqm,"Cansojong, Talisay",Land,"Land,residential-lot",185,None,None,None,None,123.844745,10.253555,None,4625000,https://www.lamudi.com.ph/residential-lot-property-for-sale-in-brgy-cansojon-166026886548.html
Maple Grove Park Village|Exclusive Village in the South Offers Launching Price!,"Tejero, General Trias",Land,"Land,residential-lot",280,None,None,None,None,120.866631,14.400861,None,16260000,https://www.lamudi.com.ph/maple-grove-park-village-exclusive-village-in-the-166026738514.html
City Property Good for Agricultural Farm lot with Creek as Bonus for sale,"Kalikid Norte, Cabanatuan",Land,"Land,agricutural-lot",17562,None,None,None,None,121.0568499,15.488769,None,2700000,https://www.lamudi.com.ph/city-property-good-for-agricultural-farm-with-cree-166026721747.html
Bungalow Condo-Type  FOR SALE,"Dontogan, Baguio",House,"House,villas",100,150,None,4,3,120.573056,16.380265,None,9000000,https://www.lamudi.com.ph/bungalow-condo-type-for-sale-166022933434.html
Best Pre Selling Condo in Cainta,"San Isidro, Cainta",Condominium,"Condominium,single-bedroom",None,31,None,1,1,121.1176763,14.5876759,Empire East Highland City,3600000,https://www.lamudi.com.ph/best-pre-selling-condo-in-cainta-166022761478.html
"Near Tiongson Grocery and Dept Store - Campo Sioco, Baguio Lot For Sale","Santo Rosario, Baguio",Land,"Land,residential-lot",407,None,None,None,None,120.5872452,16.4009423,None,6715500,https://www.lamudi.com.ph/near-tiongson-grocery-and-dept-store-campo-sioco-l-166022536286.html
600k for ASSUME Townhouse in Cebu City,"Tisa, Cebu",House,"House,townhouse",0,87,None,3,2,123.86984,10.304145,None,5000000,https://www.lamudi.com.ph/600k-for-assume-townhouse-in-cebu-city-166022029897.html
"FOR SALE: 3 Bedroom Townhouse in The Villages at Lipa, Lipa City, Batangas","Bugtong Na Pulo, Lipa",House,"House,townhouse",115,93,None,3,2,121.1705877,14.0042716,None,4800000,https://www.lamudi.com.ph/the-villages-at-lipa-3-storey-townhouse-for-sale-166021455169.html
Elegant House and lot In Antipolo With Golf course Inside Subd,"Inarawan, Antipolo",House,"House,single-family-house",264,172,None,4,5,121.240436,14.670622,None,18000000,https://www.lamudi.com.ph/elegant-house-and-lot-in-antipolo-with-golf-course-166021180043.html
Affordable 2 Bedroom Townhouse in Phirst Park Homes Lipa,"San Lucas, Lipa",House,"House,townhouse",44,40,1,2,1,121.1808769,14.0178701,None,1823935,https://www.lamudi.com.ph/affordable-2-bedroom-townhouse-in-phirst-park-home-166021168590.html
"3 Bedroom, Single Attached House in Phirst Park Homes Batulao near Tagaytay","Kaylaway, Nasugbu",House,"House,single-family-house",99,54,1,3,2,120.810579,14.0778507,None,5123610,https://www.lamudi.com.ph/3-bedroom-single-attached-house-in-phirst-park-hom-166021052423.html
"Huge Prime Lot For Sale at Town and Country Estates, Valley Golf Antipolo","Santa Cruz, Antipolo",Land,"Land,residential-lot",1790,None,None,None,None,121.1976151,14.6179598,None,32220000,https://www.lamudi.com.ph/huge-prime-lot-for-sale-at-town-and-country-estate-166020853312.html
"BF Homes, Paranaque City, BF West Executive Village House for Sale","B.F. Homes, Paranaque",House,"House,single-family-house",408,380,6,5,5,121.0245799,14.4521766,None,29000000,https://www.lamudi.com.ph/bf-homes-paranaque-city-bf-west-executive-village-166020833711.html
"For Sale Fully Furnished 4 Bedroom Unit at Brio Tower, Makati City","Guadalupe Viejo, Makati",Condominium,"Condominium,4-bedroom",None,230,4,4,3,121.040676,14.564421,Brio Tower,55000000,https://www.lamudi.com.ph/brio-tower-makati-city-edsa-166020795369.html
Tomas Morato Quezon City Townhouse for Sale - 48.8M,"Diliman, Quezon City",House,"House,townhouse",97.6,500,7,4,5,121.0528,14.6462,None,48800000,https://www.lamudi.com.ph/tomas-morato-quezon-city-townhouse-for-sale-48-8m-166020212051.html
For Sale: RFO Calista Mid Unit at PHirst Park Homes Magalang Pampanga,"Santo Rosario, Magalang",House,"House,townhouse",44,40,1,2,1,120.649277,15.239425,None,1750164,https://www.lamudi.com.ph/for-sale-rfo-calista-mid-unit-at-phirst-park-homes-166019760314.html
"Commercial Property in V Rama Avenue Cebu City, Cebu","Calamba, Cebu",Commercial,"Commercial,building",561,0,None,None,None,123.8876821,10.29875238,None,35000000,https://www.lamudi.com.ph/commercial-property-in-along-vrama-avenue-cebu-cit-166019508819.html
"8345 sqm Lot for Sale at Cupang, Muntinlupa City","Cupang, Muntinlupa",Land,"Land,commercial-lot",8345,None,None,None,None,121.040194,14.434669,None,917950000,https://www.lamudi.com.ph/8345-sqm-lot-for-sale-at-cupang-muntinlupa-city-16601903571.html
Vista GL taft condo in front of PGH MANILA,"Taft, Manila",Condominium,"Condominium,studio",None,21,None,1,1,121.0560385,14.5962746,Vista Gl Taft,3647141,https://www.lamudi.com.ph/vista-gl-taft-condo-in-front-of-pgh-manila-166017589289.html
Vista pointe Katipunan condo in front of Miriam college and ateneo,"Katipunan, Quezon City",Condominium,"Condominium,studio",None,21,None,1,1,121.0443089,14.6621443,Vista Pointe,3581885,https://www.lamudi.com.ph/vista-pointe-katipunan-condo-in-front-of-miriam-co-166017506398.html
Park Residences Santa Rosa Laguna Flexi Suite 28.52sqm for Resale,"Tagapo, Santa Rosa",Condominium,"Condominium,studio",None,28.52,None,1,1,121.0964134,14.3127655,Park Residences,3200000,https://www.lamudi.com.ph/park-residences-santa-rosa-lagun-166015011560.html
Newly Built 3BR House And Lot For Sale,"Candau-Ay, Dumaguete",House,"House,single-family-house",389,220,None,3,2,123.271614,9.310305,None,9000000,https://www.lamudi.com.ph/newly-built-3br-house-and-lot-for-sale-166014408880.html
50sqm for 3M Only | 2BR Mid-Rise Condo in Antipolo City,"San Roque, Antipolo",Condominium,"Condominium,double-bedroom",None,50,None,2,1,121.1719311,14.57128607,Midori Terraces,3000000,https://www.lamudi.com.ph/50sqm-for-3m-only-2br-mid-rise-condo-in-antipolo-c-166012970129.html
169 sqm 3 Bedroom with Parking Slot at Shang Residences at Wack Wack,"Wack-Wack Greenhills, Mandaluyong",Condominium,"Condominium,3-bedroom",None,169,1,3,4,121.048466,14.58716839,Shang Residences at Wack Wack,36845080,https://www.lamudi.com.ph/169-sqm-3-bedroom-with-parking-slot-at-shang-resid-166012923740.html
House For Sale in Ponticelli Gardens Bacoor Cavite,"Molino III, Bacoor",House,"House,single-family-house",110,93,1,3,2,120.9777822,14.3981207,None,8500000,https://www.lamudi.com.ph/house-for-sale-in-ponticelli-gardens-bacoor-cavite-166012824835.html
Ready for Occupancy near Antipolo Cathedral,"Dela Paz, Antipolo",House,"House,townhouse",50,87,1,3,2,121.1742971,14.59077679,None,4686000,https://www.lamudi.com.ph/ready-for-occupancy-near-antipolo-cathedral-166012706097.html
Circuit Makati - Ready Turnover Bare Office Space,"Carmona, Makati",Commercial,"Commercial,offices",0,79,None,None,None,121.0275016,14.5570169,None,21463000,https://www.lamudi.com.ph/circuit-makati-ready-turnover-bare-office-space-16601264888.html
"For Sale 295 sqm RFO Penthouse Unit with Garden at Celadon Park, Manila","Santa Cruz, Manila",Condominium,"Condominium,penthouse-1",None,295,None,3,None,120.984764,14.617888,Celadon Park ,24682000,https://www.lamudi.com.ph/for-sale-295-sqm-rfo-penthouse-unit-with-garden-at-166012648432.html
Preselling 4 bedroom Condominium Unit in T One Residences - Binondo Manila,"Binondo, Manila",Condominium,"Condominium,4-bedroom",None,187,2,4,4,121.0560385,14.5962746,T One Residences,20128000,https://www.lamudi.com.ph/preselling-4-bedroom-condominium-unit-in-t-one-res-16601264817.html
GR357 Brand New 2-Car Townhouse near Q. Avenue & E. Rodriguez,"E. Rodriguez, Quezon City",House,"House,townhouse",85,210,None,3,3,121.052143,14.627397,None,18800000,https://www.lamudi.com.ph/gr357-brand-new-2-car-townhouse-near-q-avenue-e-ro-166012508375.html
"For Sale Modern Design 2 Storey Townhouse in Moonwalk Village, Las Pinas","Talon Singko, Las Pinas",House,"House,townhouse",52,72,1,2,2,120.996723,14.422561,None,4800000,https://www.lamudi.com.ph/modern-design-2-storey-townhouse-in-moonwalk-villa-166011267890.html
Spacious corner 1BR with stunning view on Rockwell & Makati,"Hulo, Mandaluyong",Condominium,"Condominium,single-bedroom",None,68.6,None,1,1,121.0355319,14.56777769,Acqua Private Residences,13450000,https://www.lamudi.com.ph/spacious-corner-1br-with-stunning-view-of-rockwell-166011228041.html
"Preselling Modern 3 Storey House and Lot in Pilar Village, Las Pinas City","Pilar, Las Pinas",House,"House,townhouse",105,216,2,4,3,121.0080137,14.417168,None,10758000,https://www.lamudi.com.ph/spectacular-prime-location-modern-3-storey-house-a-166009891287.html
"For Sale: Upgraded Modern Design House and Lot in Capitangan, Abucay, Bataan","Capitangan, Abucay",House,"House,single-family-house",204,200,None,3,2,120.4865635,14.6950331,None,5800000,https://www.lamudi.com.ph/for-sale-upgraded-modern-design-house-and-lot-in-c-166009731120.html
"ADG - For Sale : 585 sqm Residential Lot in Bel Air 2, Makati City","Bel-Air, Makati",Land,"Land,residential-lot",585,None,None,None,None,121.026342,14.563933,None,195000000,https://www.lamudi.com.ph/adg-for-sale-585-sqm-residential-lot-in-bel-air-2-166009697736.html
Massive 8-Bedroom House and Lot for Sale in BF Homes Sucat,"B.F. Homes, Paranaque",House,"House,single-family-house",650,750,2,8,8,121.0245799,14.4521766,None,59000000,https://www.lamudi.com.ph/massive-8-bedroom-house-and-lot-for-sale-in-bf-hom-166009664136.html
"Fully Furnished 1 Bedroom Unit For Sale in Wind Residences, Tagaytay","Maharlika West, Tagaytay",Condominium,"Condominium,single-bedroom",None,23,None,1,1,120.9434149,14.1026081,Wind Residences,3500000,https://www.lamudi.com.ph/fully-furnished-1-bedroom-unit-for-sale-in-wind-re-166009283346.html
Valle Verde 6 Single detached townhouse for Sale,"Valle Verde 6, Pasig",House,"House,townhouse",200,430,None,5,5,121.075788,14.590946,None,110000000,https://www.lamudi.com.ph/valle-verde-6-single-detached-townhouse-for-sale-166009168728.html
"House for sale in St Joseph Windfield 4, Cabuyao City, Laguna | Camira","Gulod, Cabuyao",House,"House,single-family-house",60,26,None,1,1,121.1623549,14.2562824,None,1605999,https://www.lamudi.com.ph/st-joseph-windfield-4-cabuyao-166005298161.html
"3 Bedroom Condo, One Serendra, with Garden views","Fort Bonifacio, Taguig",Condominium,"Condominium,3-bedroom",None,210,2,3,3,121.050318,14.540867,One Serendra,70000000,https://www.lamudi.com.ph/3-bedroom-condo-one-serendra-with-garden-views-166003713146.html
"NRFO 5 Bedrooms House and lot for sale in Puerto Princesa, Palawan","Bancao-Bancao, Puerto Princesa",House,"House,single-family-house",161,142,None,5,3,118.760283,9.732545,None,10258000,https://www.lamudi.com.ph/house-and-lot-166003655483.html
"NRFO 4BR House and Lot for sale in Puerto Princesa, Palawan","Bancao-Bancao, Puerto Princesa",House,"House,single-family-house",126,85,None,4,3,118.760283,9.732545,None,7730000,https://www.lamudi.com.ph/house-and-lot-166003645496.html
"3 Bedrooms House and Lot for sale in Puerto Princesa, Palawan","Bancao-Bancao, Puerto Princesa",House,"House,single-family-house",111,66,None,3,2,118.760283,9.732545,None,6644000,https://www.lamudi.com.ph/house-and-lot-166003627821.html
Building for Sale in Mandaluyong City,"Highway Hills, Mandaluyong",Commercial,"Commercial,building",279,1674,None,None,None,121.052143,14.578255,None,107000000,https://www.lamudi.com.ph/building-for-sale-in-mandaluyong-city-166003583715.html
2 Bedroom Condo for Sale in Tropical Palms near Greenbelt Makati,"Legazpi Village, Makati",Condominium,"Condominium,double-bedroom",None,141,1,2,3,121.017742,14.554848,Tropical Palms,20000000,https://www.lamudi.com.ph/2-bedroom-for-sale-in-tropical-palms-near-greenbel-166003581495.html
Commercial Building for Sale in Mandaluyong City,"Highway Hills, Mandaluyong",Commercial,"Commercial,building",279,1674,None,None,None,121.052143,14.578255,None,107000000,https://www.lamudi.com.ph/commercial-building-for-sale-in-mandaluyong-city-166003539262.html
House and Lot Kapitolyo Pasig City near Capitol Commons,"Kapitolyo, Pasig",House,"House,single-family-house",368,395.3,2,4,2,121.060157,14.569208,None,52000000,https://www.lamudi.com.ph/house-and-lot-kapitolyo-pasig-city-near-capitol-co-166003446477.html
"Rush Sale!! House and Lot for sale in Project 4, Quezon City","Project 4, Quezon City",House,"House,single-family-house",368.7,290,2,7,5,121.0708,14.62078,None,30000000,https://www.lamudi.com.ph/rush-sale-project-4-house-and-lot-166003388287.html
House for Sale in Tagaytay,"Mendez Crossing West, Tagaytay",House,"House,single-family-house",507,675.25,None,6,6,120.9146954,14.1002461,None,58000000,https://www.lamudi.com.ph/house-for-sale-in-tagaytay-166003172673.html
"House and Lot for Sale Tagaytay, Cavite","Mendez Crossing West, Tagaytay",House,"House,single-family-house",507,675,None,6,6,120.9146954,14.1002461,None,58000000,https://www.lamudi.com.ph/house-and-lot-for-sale-tagaytay-cavite-166003138582.html
Ready for occupancy unit 2 bedrooms and 2 Toilet and bath in Batangas,"Tinga Labak, Batangas City",House,"House,single-family-house",99,53,None,2,2,121.0802496,13.7847667,None,5298000,https://www.lamudi.com.ph/ready-for-occupancy-unit-2-bedrooms-and-2-toilet-a-166002851369.html
Residential Lot For Sale,"Poblacion, Balete",Land,"Land,residential-lot",77.3,None,None,None,None,121.0989581,14.018627,None,7771200,https://www.lamudi.com.ph/residential-lot-for-sale-166002670925.html
"For sale Beach Residential Lot San Juan, Batangas","Laiya-Ibabao, San Juan",Land,"Land,beach-lot",37,None,None,None,None,121.422891,13.673186,None,5439000,https://www.lamudi.com.ph/for-sale-beach-residential-lot-san-juan-batangas-166002670692.html
"77.3 sqm Residential lot for sale in Mozzafiato, Balete, Batangas","Poblacion, Balete",Land,"Land,residential-lot",77.3,None,None,None,None,121.0989581,14.018627,None,7771200,https://www.lamudi.com.ph/77-3-sqm-residential-lot-for-sale-in-mozzafiato-ba-166002670359.html
"Residential lot for sale in Munting Pulo, Lipa, Batangas","Munting Pulo, Lipa",Land,"Land,residential-lot",200,None,None,None,None,121.186778,13.955635,None,22579200,https://www.lamudi.com.ph/residential-lot-for-sale-in-munting-pulo-lipa-bata-166002669853.html
"77.3 sq.m Residential lot for sale in Mozzafiato, Balete, Batangas","Poblacion, Balete",Land,"Land,residential-lot",77.3,None,None,None,None,121.0989581,14.018627,None,7771200,https://www.lamudi.com.ph/77-3-sq-m-residential-lot-for-sale-in-mozzafiato-b-166002669538.html
Ready to Own Single Family House at the Back of Vista Mall,"Longos, Balagtas",House,"House,single-family-house",99,85,None,4,3,120.9153503,14.8205831,None,6698600,https://www.lamudi.com.ph/ready-to-own-single-family-house-infront-of-vista-166002668861.html
Vacant Residential Lot at Sun Valley Antipolo for Sale,"Bagong Nayon, Antipolo",Land,"Land,residential-lot",644,None,None,None,None,121.210775,14.705728,None,8694000,https://www.lamudi.com.ph/vacant-residential-lot-at-sun-valley-antipolo-for-166002578056.html
"For Sale Fully Furnished 1-Bedroom Unit across SM City w/ Parking, Cebu City","North Reclamation Area, Cebu",Condominium,"Condominium,single-bedroom",None,48,None,1,1,123.9157609,10.3084189,Sunvida Tower,7000000,https://www.lamudi.com.ph/income-generating-fully-furnished-2-bedroom-unit-a-166002490993.html
"House and lot for sale in Camella Azienda, Batangas City | Greta","Tinga Labak, Batangas City",House,"House,single-family-house",143,166,None,3,2,121.0802496,13.7847667,None,9523000,https://www.lamudi.com.ph/house-and-lot-for-sale-in-camella-azienda-batangas-166002421437.html
Pre- Selling Unit @ Periveo Mabini Lipa Road Lipa City,"Mabini, Lipa",House,"House,single-family-house",120,100.95,2,3,2,121.155483,13.895805,None,6748454.4,https://www.lamudi.com.ph/periveo-house-and-lot-for-sale-in-mabini-lipa-bata-166002421490.html
Phinma Maayo-San Jose,"Banaybanay II, San Jose",House,"House,townhouse",80,74.26,None,3,3,121.102657,13.9179,None,3100000,https://www.lamudi.com.ph/phinma-maayo-san-jose-166002421046.html
High-End Luxury  @Forbes Estate-Lipa,"Poblacion Barangay 9-A, Lipa",Land,"Land,residential-lot",487,None,None,None,None,121.166014,13.94143,None,12436032,https://www.lamudi.com.ph/high-end-luxury-forbes-estate-lipa-166002420790.html
"3 Bedrooms House and Lot @ Kota Keluarga, San Juan, Batangas | Nadia","Laiya-Ibabao, San Juan",House,"House,single-family-house",200,103,None,3,2,121.422891,13.673186,None,9022000,https://www.lamudi.com.ph/3-bedrooms-house-and-lot-kota-keluarga-san-juan-ba-16600242049.html
For sale House in Greenwoods Hampton Place by Demeterland,"Pallocan Kanluran, Batangas City",House,"House,single-family-house",240,158,None,5,3,121.0703122,13.7559187,None,9930000,https://www.lamudi.com.ph/for-sale-house-in-greenwoods-hampton-place-by-deme-166002420425.html
Brand New Single Detached New Manila Townhouse With Elevator Below 100M For Sale,"New Manila, Quezon City",House,"House,townhouse",231,600.27,None,5,5,121.0306,14.61633,None,99000000,https://www.lamudi.com.ph/brand-new-single-detached-new-manila-townhouse-wit-166002346971.html
"Porto Laiya Residential Property For Sale in San Juan, Batangas","Laiya-Ibabao, San Juan",Land,"Land,residential-lot",384,None,None,None,None,121.422891,13.673186,None,7296000,https://www.lamudi.com.ph/porto-laiya-residential-property-for-sale-in-san-j-166002005885.html
"Forbes Estates Lipa - Preselling Lot Only For Sale in Inosloban, Lipa","Inosloban, Lipa",Land,"Land,residential-lot",487,None,None,None,None,121.1701226,13.9775271,None,12436032,https://www.lamudi.com.ph/forbes-estates-lipa-preselling-lot-only-for-sale-i-166002005235.html
For Sale Golf Residential Lot at Phase 3 E Summit Point Lipa Golf & Country Club,"Plaridel, Lipa",Land,"Land,residential-lot",150,None,None,None,None,121.1754648,13.9977411,None,1351800,https://www.lamudi.com.ph/for-sale-golf-residential-lot-at-phase-3-e-summit-166002005035.html
"RFO! 3 Bedroom House with Balcony for sale in Summit Point, Plaridel, Lipa","Plaridel, Lipa",House,"House,single-family-house",204,206.04,1,3,3,121.1754648,13.9977411,None,12266275.2,https://www.lamudi.com.ph/rfo-3-bedroom-house-with-balcony-for-sale-in-summi-16600200454.html
"House For sale in Phirst Park Homes Batulao, Nasugbu Batangas","Kaylaway, Nasugbu",House,"House,townhouse",50,40,None,2,1,120.810579,14.0778507,None,2320385,https://www.lamudi.com.ph/phirst-park-homes-batulao-166001413711.html
"Pre-Selling! 1 Bedroom Unit in Maple at Verdant Towers Ortigas East, Pasig City","Ugong, Pasig",Condominium,"Condominium,single-bedroom",None,52,None,1,1,121.0773161,14.58859839,Maple at Verdant Towers,15408000,https://www.lamudi.com.ph/for-sale-1-bedroom-unit-in-maple-at-verdant-towers-166001232531.html
"Pre-selling Larsen Tower, East Bay Residences - 2BR Condominium in Muntinlupa","Sucat, Muntinlupa",Condominium,"Condominium,double-bedroom",None,57,None,2,2,121.049276,14.45461,East Bay Residences,9558875,https://www.lamudi.com.ph/larsen-tower-east-bay-residences-2br-57-sqm-166001120271.html
"For Sale: 1BR Unit in AIC Grande Tower, Garnet St, Ortigas, Pasig with 2 Parking","Ortigas CBD, Pasig",Condominium,"Condominium,single-bedroom",None,61.09,2,1,1,121.0616712,14.58905021,AIC Grande Tower,6800000,https://www.lamudi.com.ph/for-sale-1br-unit-in-aic-grande-tower-garnet-st-or-166001129398.html
"AMAIA STEPS NUVALI | Studio Unit for Sale in Calamba, Laguna","Canlubang, Calamba",Condominium,"Condominium,studio",None,31.75,None,1,1,121.0533622,14.1857173,AMAIA STEPS NUVALI,3800000,https://www.lamudi.com.ph/amaia-steps-nuvali-studio-unit-for-sale-in-calamba-166001087641.html
Fully Furnished 1 Bedroom Unit For Sale In Wind Residences By SMDC,"Maharlika West, Tagaytay",Condominium,"Condominium,single-bedroom",None,26.62,None,1,1,120.9434149,14.1026081,SMDC WIND RESIDENCES,5500000,https://www.lamudi.com.ph/fully-furnished-1-bedroom-unit-for-sale-in-wind-re-166001030623.html
For sale 6 Bedrooms House and Lot in Tivoli Greens - Quezon City,"Batasan Hills, Quezon City",House,"House,single-family-house",300,277,2,6,4,121.096563,14.681641,None,27000000,https://www.lamudi.com.ph/for-sale-house-and-lot-tivoli-greens-quezon-city-16599757172.html
"For Sale 2 Bedroom Well-Furnished Garden Unit at 32 Sanson by Rockwell, Cebu","Lahug, Cebu",Condominium,"Condominium,double-bedroom",None,108,1,2,3,123.894266,10.3338536,32 Sanson by Rockwell,17500000,https://www.lamudi.com.ph/2-bedroom-well-furnished-garden-unit-165996757650.html
"New 2 Storey House Complete Turn Over for sale in Santa Maria, Bulacan","Pulong Buhangin, Santa Maria",House,"House,single-family-house",88,66,None,3,2,121.0041294,14.8696481,None,5200000,https://www.lamudi.com.ph/new-2-storey-house-complete-turn-over-165996527645.html
RFO 1 Bedroom 2 T&B with Parking in Chateau de Bai For Sale in Paranaque City,"Baclaran, Paranaque",Condominium,"Condominium,single-bedroom",None,95.15,1,1,2,120.997102,14.529416,Chateau de Baie,11000000,https://www.lamudi.com.ph/rfo-1-bedroom-2-t-b-with-parking-in-chateau-de-bai-165996107734.html
"Commercial Office Building for Sale in Makati City, Makati Ave.","San Lorenzo, Makati",Commercial,"Commercial,building",264,2156.78,None,None,None,121.019175,14.550759,None,275000000,https://www.lamudi.com.ph/commercial-office-building-for-sale-in-makati-city-165995141153.html
"Rush Sale Commercial Building for Sale in Makati City, Makati Ave.","Makati Avenue, Makati",Commercial,"Commercial,building",264,2156.78,6,None,None,121.0271,14.55973,None,275000000,https://www.lamudi.com.ph/rush-sale-commercial-building-for-sale-in-makati-c-165995140836.html
Building for Sale in Makati City,"San Lorenzo, Makati",Commercial,"Commercial,offices",264,2156,None,None,None,121.019175,14.550759,None,275000000,https://www.lamudi.com.ph/building-for-sale-in-makati-city-165995140785.html
"For Sale 300 sqm Vacant Lot in Beverly Hills, Antipolo City, Rizal","Mambugan, Antipolo",Land,"Land,commercial-lot",300,None,None,None,None,121.157573,14.58843,None,3800000,https://www.lamudi.com.ph/antipolo-vacant-lot-for-sale-beverly-hills-vacant-165995077923.html
"For Sale House and Lot in Parkwood Greens Phase 1-A, Pasig City","Maybunga, Pasig",House,"House,single-family-house",150,230,1,3,3,121.085049,14.576282,None,10800000,https://www.lamudi.com.ph/pasig-city-house-and-lot-for-sale-parkwood-greens-165995090083.html
For Sale Elegantly Finished 3 Storey Duplex House in Royal South Subd Las Pinas,"Pilar, Las Pinas",House,"House,townhouse",52,150,1,4,3,121.0080137,14.417168,None,7600000,https://www.lamudi.com.ph/elegantly-finished-3-storey-duplex-house-in-royal-165994858884.html
"Modern Design 3 Bedrooms Triplex in Pilar Village, Las Pinas City","Pilar, Las Pinas",House,"House,townhouse",80,130,2,3,3,121.0080137,14.417168,None,6000000,https://www.lamudi.com.ph/modern-design-triplex-in-pilar-village-las-pinas-165994831136.html
"Bellagio 2 Bedroom Penthouse Corner Unit Condo for Sale in BGC, Taguig City","Fort Bonifacio, Taguig",Condominium,"Condominium,penthouse-1",None,168,2,2,2,121.050318,14.540867,Bellagio Two,42000000,https://www.lamudi.com.ph/bellagio-tower2-penthouse-corner-unit-condo-for-sa-165994706521.html
"For sale House and Lot inside Executive Subd. - Calumpit, Bulacan","San Marcos, Calumpit",House,"House,single-family-house",168,220,1,4,3,120.7796077,14.8984502,None,15000000,https://www.lamudi.com.ph/house-and-lot-inside-executive-subd-calumpit-bulac-165994339878.html
"Makati Dorm Building for Sale, Pembo Makati, 3-storey with roof deck","Pembo, Makati",Apartment,"Apartment,apartments",None,0,None,10,None,121.057819,14.54414,None,32000000,https://www.lamudi.com.ph/makati-dorm-building-for-sale-pembo-makati-3-store-165994263227.html
"Dormitory Commercial Building for Sale in Pembo, Makati City Nr. BGC, SM Aura","Pembo, Makati",Apartment,"Apartment,apartments",None,123,None,10,9,121.057819,14.54414,None,32000000,https://www.lamudi.com.ph/dormitory-commercial-building-for-sale-in-pembo-ma-165994140621.html
"1 Bedroom Condominium for Sale in Avida Centera, Mandaluyong","Highway Hills, Mandaluyong",Condominium,"Condominium,single-bedroom",None,35,None,1,1,121.052143,14.578255,Avida Towers Centera,7000000,https://www.lamudi.com.ph/1-bedroom-for-sale-in-avida-centera-mandaluyong-165994122758.html
"For Sale Tomas Morato Brand New 4 Storey Building, Diliman Quezon City","Kristong Hari, Quezon City",Commercial,"Commercial,building",98.27,309.81,None,None,None,121.029926,14.624843,None,62000000,https://www.lamudi.com.ph/for-sale-rent-tomas-morato-brand-new-4-storey-buil-165993887159.html
"Pre-selling in Katipunan near Ateneo de Manila, Miriam affordable condo","Katipunan, Quezon City",Condominium,"Condominium,studio",None,17,None,1,1,121.0735023,14.63422414,101 Xavierville,1800000,https://www.lamudi.com.ph/pre-selling-in-katipunan-near-ateneo-de-manila-mir-165993786767.html
"Ysabella Grand Main rd, Single Detached House at Angeles City, Pampanga","Sapalibutad, Angeles",House,"House,single-family-house",161,162,None,3,3,120.651906,15.150545,None,5944007,https://www.lamudi.com.ph/ysabella-grand-main-rd-single-dettached-angeles-ci-165993311918.html
ULTRAMODERN 3storey 4Bedrooms House and lot for sale in Las pinas City.,"Almanza Uno, Las Pinas",House,"House,townhouse",80,195,1,4,3,121.0140532,14.4324914,None,9288000,https://www.lamudi.com.ph/ultramodern-3storey-4bedrooms-house-and-lot-for-sa-165992667522.html
Spectacular PRIME LOCATION Modern 3storey house and Lot for sale in Pilar Viilag,"Pilar, Las Pinas",House,"House,townhouse",83.93,190,1,4,3,121.0080137,14.417168,None,9757000,https://www.lamudi.com.ph/spectacular-prime-location-modern-3storey-house-an-165992643275.html
2 Storey 5 Bedroom House for Sale in Cainta Greenpark,"San Isidro, Cainta",House,"House,single-family-house",214,350,None,5,3,121.1051828,14.61697691,None,10500000,https://www.lamudi.com.ph/2-storey-5-bedroom-house-for-sale-in-cainta-greenp-165987709377.html
Beach Lot in Palawan,"Berong, Quezon",Land,"Land,beach-lot",5986,None,None,None,None,118.255232,9.419047,None,5986000,https://www.lamudi.com.ph/beach-lot-in-palawan-165985741652.html
House & Lot for Sale at Naic Cavite,"Palangue 1, Naic",House,"House,townhouse",38,43,None,2,1,120.827486,14.262481,None,1289523,https://www.lamudi.com.ph/house-lot-for-sale-at-naic-cavite-165985549122.html
"Rush Sale!!! Negotiable 3 Bedroom Unit in The Salcedo Park Condominium, Makati","Bel-Air, Makati",Condominium,"Condominium,3-bedroom",None,179,2,3,3,121.026342,14.563933,The Salcedo Park,32000000,https://www.lamudi.com.ph/rush-sale-negotiable-3-bedroom-unit-in-the-salcedo-165992026350.html
"Rush Sale! House and Lot in Alabang Hills Village, Muntinlupa City","Cupang, Muntinlupa",House,"House,single-family-house",450,350,None,4,5,121.040194,14.434669,None,60000000,https://www.lamudi.com.ph/rush-sale-house-and-lot-in-alabang-hills-village-m-165985638180.html
"FOR SALE! House and Lot VILLA TERESA, Angeles City, Pampanga","Santo Rosario, Angeles",House,"House,single-family-house",600,400,None,4,4,120.623283,15.125055,None,24000000,https://www.lamudi.com.ph/for-sale-house-and-lot-villa-teresa-angeles-city-p-165978862313.html
277 sqm Residential Lot for Sale in Antipolo Rizal,"Santa Cruz, Antipolo",Land,"Land,residential-lot",277,0,None,None,None,121.17485,14.5841,None,5000000,https://www.lamudi.com.ph/277-sqm-residential-lot-for-sale-in-antipolo-rizal-165985088376.html
"For sale Studio Condominium Facing BGC Rent to Own, Mandaluyong","Buayang Bato, Mandaluyong",Condominium,"Condominium,studio",None,24.17,None,1,1,121.051068,14.569686,Axis Residences,4428847,https://www.lamudi.com.ph/studio-facing-bgc-rent-to-own-165978698986.html
"FOR SALE! Residential Lot ROSEWOOD PARK HOMES, Angeles City, Pampanga","Cutcut, Angeles",Land,"Land,residential-lot",150,None,None,None,None,120.60262,15.122625,None,2500000,https://www.lamudi.com.ph/for-sale-residential-lot-rosewood-park-homes-angel-165978527770.html
Preselling 2-3 BR Townhouse / Single attached Phirst Park Homes near Tagaytay,"Kaylaway, Nasugbu",House,"House,townhouse",50,40,None,2,1,120.810579,14.0778507,None,2320000,https://www.lamudi.com.ph/preselling-2-3-br-townhouse-single-attached-phirst-165978075255.html
"Well Maintained Modern House and Lot For Sale in Bf Homes, Paranaque City","B.F. Homes, Paranaque",House,"House,single-family-house",289,320,3,4,4,121.0245799,14.4521766,None,26000000,https://www.lamudi.com.ph/well-maintained-modern-house-and-lot-for-sale-in-b-165985485937.html
"Lot for Sale along Prime Road at BF Homes, Paranaque City, Metro Manila","B.F. Homes, Paranaque",Land,"Land,residential-lot",378,None,None,None,None,121.0245799,14.4521766,None,17010000,https://www.lamudi.com.ph/lot-for-sale-along-prime-road-at-bf-homes-para-aqu-165985481117.html
"Preselling 3-BR w/ Lanai in Montrose Capital Town, San Fernando by Megaworld","Telabastagan, San Fernando",Condominium,"Condominium,3-bedroom",None,165.5,None,3,4,120.635072,15.10712,Montrose,36103788,https://www.lamudi.com.ph/preselling-3-br-w-lanai-in-montrose-capital-town-s-165995518359.html
For Sale Brand New Modern Design Duplex House in Bf Resort Village Las Pinas,"Talon Dos, Las Pinas",House,"House,townhouse",122,155,2,3,3,120.985214,14.438526,None,10500000,https://www.lamudi.com.ph/for-sale-brand-new-modern-design-duplex-house-in-b-165995974661.html
Well Maintained Single Detached House and Lot in Bf Resort Village Las Pinas,"Talon Dos, Las Pinas",House,"House,single-family-house",432,245,2,5,5,120.985214,14.438526,None,22500000,https://www.lamudi.com.ph/well-maintained-single-detached-house-and-lot-in-b-165995984050.html
For Sale Fully Furnished studio near universities in downtown Cebu,"Kalubihan, Cebu",Condominium,"Condominium,studio",None,22,None,1,1,123.901384,10.293865,148 Residences,2200000,https://www.lamudi.com.ph/for-sale-fully-furnished-studio-near-universities-165995158433.html
"Townhouse for sale at conchu Trece Martires, with free gate, Cavite","Conchu, Trece Martires",House,"House,townhouse",44,42,None,2,1,120.882234,14.257876,None,1587700,https://www.lamudi.com.ph/townhouse-for-sale-at-conchu-trece-martires-with-f-165996681560.html
Dazzling Modern 2Storey House & Lot for Sale in Better Living Paranaque City,"Don Bosco, Paranaque",House,"House,single-family-house",210,236,2,5,6,121.024909,14.482705,None,18500000,https://www.lamudi.com.ph/dazzling-modern-2storey-house-lot-for-sale-in-bett-165975431781.html
1 Bedroom Marco Polo condominium Cebu for sale,"Lahug, Cebu",Condominium,"Condominium,single-bedroom",None,47,None,1,1,123.894266,10.3338536,Marco Polo condominium,7200000,https://www.lamudi.com.ph/marco-polo-condominium-for-sale-165974986167.html
"Elegant Triplex House and Lot for sale in Las Pinas City, Metro Manila","Talon Dos, Las Pinas",House,"House,townhouse",60,155,1,4,3,120.985214,14.438526,None,6528000,https://www.lamudi.com.ph/elegant-triplex-house-and-lot-for-sale-in-las-pi-a-165997170845.html
For sale 2 Bedroom Golf Course View at Shang Residences at Wack Wack,"Wack-Wack Greenhills, Mandaluyong",Condominium,"Condominium,double-bedroom",None,142,1,2,3,121.053333,14.592173,Shang Residences at Wack Wack,49418000,https://www.lamudi.com.ph/for-sale-2-bedroom-golf-course-view-at-shang-resid-165997642695.html
"3 Bedroom House and lot for sale in Sevina Park Villas, Binan, Laguna","Binan, Binan",House,"House,villas",117,162,None,3,3,121.0539924,14.2703263,None,24587742.46,https://www.lamudi.com.ph/3-bedroom-house-and-lot-for-sale-in-sevina-park-vi-165996826452.html
Fully Furnished Ajoya 5BR Single Detached House and Lot near CCLEX,"Gabi, Cordova",House,"House,single-family-house",120,84,None,5,2,123.960462,10.26232,None,7000000,https://www.lamudi.com.ph/fully-furnished-ajoya-5br-single-detached-house-an-165970227849.html
Commercial Lot For Sale in Imus Cavite.  Few Walks-Away from Aguinaldo Highway,"Anabu II-D, Imus",Land,"Land,commercial-lot",3484,None,None,None,None,120.9376723,14.3730865,None,122000000,https://www.lamudi.com.ph/commercial-lot-for-sale-in-imus-cavite-few-walks-a-165970184616.html
"Lot for Sale in Silang, Cavite 1000 sq.m","Lumil, Silang",Land,"Land,residential-lot",1000,None,None,None,None,121.008126,14.179173,None,7000000,https://www.lamudi.com.ph/lot-for-sale-in-silang-cavite-1000-sq-m-165968808390.html
3 BR Single House and Lot for sale in Talisay City Cebu near SRP,"Pooc, Talisay",House,"House,single-family-house",82,102,None,3,2.5,123.823521,10.24271,None,7573942,https://www.lamudi.com.ph/3-br-single-house-and-lot-for-sale-in-talisay-city-165968529025.html
"FOR SALE - 6BR at West Tower in Twin Oaks Place, Mandaluyong City",Mandaluyong,Condominium,"Condominium,other-4",None,407,None,6,6,121.0363943,14.5820678,Twin Oaks Place,92650000,https://www.lamudi.com.ph/for-sale-6br-at-west-tower-in-twin-oaks-place-mand-165968483722.html
Brand New 2-Storey House For Sale In Antipolo City,"Inarawan, Antipolo",House,"House,single-family-house",150,117,None,3,3,121.240436,14.670622,None,7900000,https://www.lamudi.com.ph/brand-new-2-storey-house-for-sale-in-antipolo-city-165967963323.html
"House and Lot for Sale in Muntinlupa City, Ayala Alabang Village","Ayala Alabang, Muntinlupa",House,"House,single-family-house",784,1350,8,9,9,121.022321,14.405874,None,420000000,https://www.lamudi.com.ph/house-and-lot-for-sale-in-muntinlupa-city-ayala-al-165994997437.html
"For Sale House and Lot in Ayala Alabang Village, Muntinlupa City","Ayala Alabang, Muntinlupa",House,"House,single-family-house",784,1350,8,9,9,121.022321,14.405874,None,420000000,https://www.lamudi.com.ph/for-sale-house-and-lot-in-ayala-alabang-village-165995196147.html
"Brand New House and Lot for Sale in Ayala Alabang Village, Muntinlupa City","Ayala Alabang, Muntinlupa",House,"House,single-family-house",784,1350,None,9,9,121.022321,14.405874,None,420000000,https://www.lamudi.com.ph/brand-new-house-and-lot-for-sale-in-ayala-alabang-165967846078.html
"Ayala Alabang Village 3-Storey House and Lot for Sale Alabang, Muntinlupa City","Ayala Alabang, Muntinlupa",House,"House,single-family-house",784,1350,None,9,9,121.022321,14.405874,None,420000000,https://www.lamudi.com.ph/ayala-alabang-village-3-storey-house-and-lot-for-s-165967845796.html
Commercial Property For Sale in Dasmarinas. Use as Office/Commercial/School,"Salitran I, Dasmarinas",Commercial,"Commercial,building",1845,1845,None,None,None,120.93635,14.357185,None,46175000,https://www.lamudi.com.ph/commercial-property-for-sale-in-dasmari-as-use-as-165992851838.html
Sendara Plains Fast Seller Town House,"Baliti, San Fernando",House,"House,townhouse",74,46,None,2,1,120.638786,15.11205,None,1154328,https://www.lamudi.com.ph/sendara-plains-fast-seller-town-house-165983982243.html
Premier Village in the South|Maple Grove Park Village Offers Launching Price!,"Tejero, General Trias",Land,"Land,residential-lot",280,None,None,None,None,120.866631,14.400861,None,16277000,https://www.lamudi.com.ph/premier-village-in-the-south-maple-grove-park-vill-165994818524.html
Spacious Five Bedroom House and Lot in Valenzuela near Mindanao Avenue UH003,"Marulas, Valenzuela",House,"House,villas",450,430,None,5,4,120.98177,14.673664,None,23000000,https://www.lamudi.com.ph/spacious-five-bedroom-house-and-lot-in-valenzuela-165966397813.html
"Country Home, Garden Sanctuary and Many More-  House for sale",Baguio,House,"House,single-family-house",1517,700,None,5,5,120.5988034,16.4162261,None,48000000,https://www.lamudi.com.ph/country-home-garden-sanctuary-and-many-more-house-16598947533.html
RUSH SALE!- Condo Unit at North Cambridge (Harvard),"Bakakeng Central, Baguio",Condominium,"Condominium,studio",None,15,None,1,1,120.5915339,16.39122061,North Cambridge,1990000,https://www.lamudi.com.ph/rush-sale-condo-unit-at-north-cambridge-harvard-165961515985.html
"For Sale 2 Bedroom Townhouse in Sendara Plains, San Fernando Pampanga","Panipuan, San Fernando",House,"House,townhouse",48,43,None,2,1,15.11301122,15.11301122,None,1091277,https://www.lamudi.com.ph/for-sale-2-bedroom-townhouse-in-sendara-plains-san-165960858647.html
"Commercial Building for Sale Quezon City, Tomas Morato, Diliman Brand New","Diliman, Quezon City",Commercial,"Commercial,building",98.27,309.81,None,None,None,121.0528,14.6462,None,62000000,https://www.lamudi.com.ph/commercial-building-for-sale-quezon-city-tomas-mor-165960506354.html
"Tomas Morato Brand New Commercial Building for Sale Quezon City, Diliman","Kristong Hari, Quezon City",Commercial,"Commercial,building",98.27,309.81,2,None,None,121.029926,14.624843,None,62000000,https://www.lamudi.com.ph/tomas-morato-brand-new-commercial-building-for-sal-165988282533.html
"Two Bedroom Residential Resort Unit in Tambuli, Lapu Lapu City, Cebu","Maribago, Lapu-Lapu",Condominium,"Condominium,double-bedroom",None,95.3,None,2,2,123.998707,10.290415,Tambuli Seaside Resort and Spa,18921000,https://www.lamudi.com.ph/two-bedroom-residential-resort-unit-in-tambuli-lap-165960444263.html
For Sale: 3 Bedroom Townhouse End Unit at Caliya Candelaria Quezon,"Masin Norte, Candelaria",House,"House,townhouse",58,54,1,3,1,121.410855,13.93871,None,2200000,https://www.lamudi.com.ph/for-sale-3-bedroom-townhouse-end-unit-at-caliya-ca-165960234699.html
Sucat Paranaque 180sqm House and Lot,"San Isidro, Paranaque",House,"House,single-family-house",180,160,None,4,2,121.011835,14.468547,None,8500000,https://www.lamudi.com.ph/sucat-paranaque-180sqm-house-and-lot-165960034271.html
"For Sale: 24 sqm, Studio Unit at Zaya in Santa Rosa City, Laguna","Balibago, Santa Rosa",Condominium,"Condominium,studio",None,24,None,1,1,121.101207,14.29686594,Zaya,2650000,https://www.lamudi.com.ph/for-sale-24-sqm-studio-unit-at-zaya-in-santa-rosa-165959938070.html
"For Sale: Jasmine Townhouse at Tanauan Park Place in Tanauan City, Batangas","Bagumbayan, Tanauan",House,"House,townhouse",50,44.5,1,2,1,121.1422818,14.07830127,None,1532000,https://www.lamudi.com.ph/for-sale-jasmine-townhouse-at-tanauan-park-place-i-165959696579.html
"Studio Unit for Sale Fully Furnished at with Balcony Silk Residences, Manila","Santa Mesa, Manila",Condominium,"Condominium,studio",None,25,None,1,1,121.017867,14.5971795,The Silk Residences,3000000,https://www.lamudi.com.ph/studio-unit-for-sale-fully-furnished-at-with-balco-165987549954.html
"For Sale Sofia Model House in Antel Grand Village Grand Oakridge, General Trias","Bacao II, General Trias",House,"House,single-family-house",100,98.95,1,3,2,120.881337,14.410355,None,8480175,https://www.lamudi.com.ph/for-sale-sofia-model-house-in-antel-grand-village-165987249269.html
"Modern Design Commercial Building for Sale in Quezon City, Tomas Morato, Diliman","Diliman, Quezon City",Commercial,"Commercial,building",98.27,309.81,None,None,None,121.0528,14.6462,None,62000000,https://www.lamudi.com.ph/modern-design-commercial-building-for-sale-in-quez-165959450471.html
"Brand New Commercial Building for Sale in Quezon City, Tomas Morato Avenue","Kristong Hari, Quezon City",Commercial,"Commercial,building",98.27,309.81,2,None,None,121.029926,14.624843,None,62000000,https://www.lamudi.com.ph/brand-new-commercial-building-for-sale-in-quezon-c-165959450231.html
"Quezon City Commercial Building for Sale in Tomas Morato Avenue, Diliman","Diliman, Quezon City",Commercial,"Commercial,building",98.27,309.81,None,None,None,121.0528,14.6462,None,62000000,https://www.lamudi.com.ph/quezon-city-commercial-building-for-sale-rent-in-t-165959450146.html
"Commercial Building for Sale in Quezon City, Tomas Morato Avenue, Diliman","Diliman, Quezon City",Commercial,"Commercial,building",98.27,309.81,2,None,None,121.0528,14.6462,None,62000000,https://www.lamudi.com.ph/commercial-building-for-sale-in-quezon-city-tomas-165975982519.html
"Brand New Commercial Building for Sale in Quezon City, Tomas Morato Ave, Diliman","Diliman, Quezon City",Commercial,"Commercial,building",98.27,309.81,2,None,None,121.0528,14.6462,None,62000000,https://www.lamudi.com.ph/brand-new-commercial-building-for-sale-in-quezon-c-165959369979.html
Hotel-Typed Luxury Condo in Pampanga|Montrose Parkview at LAUNCHING PRICE!,"Santo Nino, San Fernando",Condominium,"Condominium,studio",None,27.5,None,1,1,120.709017,15.29195,Montrose Parkview,6290000,https://www.lamudi.com.ph/hotel-typed-luxury-condominium-montrose-parkview-e-165959127945.html
"Condo for Sale in BGC, Taguig City, Blue Sapphire Residences 3 Bedroom Furnished","Fort Bonifacio, Taguig",Condominium,"Condominium,3-bedroom",None,99,None,3,2,121.050318,14.540867,Blue Sapphire Residences,17300000,https://www.lamudi.com.ph/condo-for-sale-in-bgc-taguig-city-blue-sapphire-re-165958519970.html
Quezon City Brand New Commercial Building for Sale in Tomas Morato,"South Triangle, Quezon City",Commercial,"Commercial,building",98,309,None,None,None,121.035979,14.637561,None,62000000,https://www.lamudi.com.ph/quezon-city-brand-new-commercial-building-for-sale-165969973695.html
Tomas Morato Modern 4-Storey Commercial Building for Sale in Quezon City,"Quezon Avenue, Quezon City",Commercial,"Commercial,building",98.27,309.81,None,None,None,121.0232,14.63518,None,62000000,https://www.lamudi.com.ph/tomas-morato-modern-4-storey-commercial-building-f-165970058734.html
"2BR House and Lot for Sale in Camella Puerto Princesa, Palawan","Bancao-Bancao, Puerto Princesa",House,"House,single-family-house",88,40,None,2,1,118.760283,9.732545,None,4890000,https://www.lamudi.com.ph/house-and-lot-for-sale-in-camella-puerto-princesa-165969610816.html
2 Bedroom Unit at Trion Towers BGC,"Fort Bonifacio, Taguig",Condominium,"Condominium,double-bedroom",None,59,None,2,2,121.050318,14.540867,The Trion Towers,17905470,https://www.lamudi.com.ph/2-bedroom-unit-at-trion-towers-bgc-165968444675.html
Luxury-Typed Premier Preselling Condominium|Montrose Parkview Launching Price!,"Santo Nino, San Fernando",Condominium,"Condominium,studio",None,35,None,1,1,120.709017,15.29195,Montrose Parkview,6334000,https://www.lamudi.com.ph/luxury-typed-premier-preselling-condominium-montro-165952385175.html
"Premium Townhouse for sale in Tandang Sora, Quezon city","Tandang Sora, Quezon City",House,"House,townhouse",90,183,2,3,4,121.0398332,14.68252145,None,15000000,https://www.lamudi.com.ph/2-unit-premium-townhouse-in-tandang-sora-quezon-ci-165952313753.html
3 Bedroom House & Lot with 2 carport in Daang Hari Cavite,"Daang Hari Road, Bacoor",House,"House,single-family-house",100,152,None,3,2,120.9909738,14.3824796,None,8800000,https://www.lamudi.com.ph/3-bedroom-house-lot-with-2-carport-in-daang-hari-c-165951927739.html
Wide Frontage Lot For Sale In Atimonan Quezon,"Angeles, Atimonan",Land,"Land,agricutural-lot",28106,None,None,None,None,121.939154,13.983765,None,28106000,https://www.lamudi.com.ph/wide-frontage-lot-for-sale-in-atimonan-quezon-165975952722.html
"Reasonable and elegant house and lot in Panglao, Bohol","Songculan, Dauis",House,"House,single-family-house",175,72,None,3,3,,,None,6500000,https://www.lamudi.com.ph/reasonable-and-elegant-house-and-lot-in-panglao-bo-165951830068.html
"Overlooking Taal LOT for Sale at Taal View Heights in Talisay, Batangas | Vista Lago,...","Aya, Talisay",Land,"Land,residential-lot",722,None,None,None,None,121.0497478,14.0992116,None,5054000,https://www.lamudi.com.ph/overlooking-taal-lot-for-sale-at-taal-view-heights-165951936179.html
"Overlooking Taal LOT for Sale at Taal View Heights in Talisay, Batangas | Vista Lago,...","Aya, Talisay",Land,"Land,residential-lot",655,None,None,None,None,121.045855,14.106764,None,4585000,https://www.lamudi.com.ph/overlooking-taal-lot-for-sale-at-taal-view-heights-16595180721.html
"For Sale House and Lot in Matandang Balara, Quezon City at Capitol Homes","Capitol Hills, Quezon City",House,"House,single-family-house",663,850,None,5,5,121.081,14.66523,None,100000000,https://www.lamudi.com.ph/for-sale-house-and-lot-in-matandang-balara-quezon-165951794817.html
"House and Lot for Sale in Matandang Balara, Quezon City at Capitol Homes","Matandang Balara, Quezon City",House,"House,single-family-house",663,850,None,5,5,121.082236,14.665648,None,100000000,https://www.lamudi.com.ph/house-and-lot-for-sale-in-matandang-balara-quezon-165951771158.html
1 Bedroom Condo Unit For Sale!!! Resale at Shore Residences,"Bay City, Pasay",Condominium,"Condominium,single-bedroom",None,27.67,0,1,1,120.9805265,14.5435176,Shore Residences,4200000,https://www.lamudi.com.ph/1-bedroom-condo-unit-for-sale-resale-at-shore-resi-165976334171.html
This is a test ad for an apartment,Angeles,Apartment,"Apartment,apartments",None,None,None,1,None,120.6134411,15.139882,None,8000000,https://www.lamudi.com.ph/this-is-a-test-ad-for-an-apartment-165951598921.html
1 Bedroom Condominium Unit for Sale at Calm Residences Laguna,"Pulong Santa Cruz, Santa Rosa",Condominium,"Condominium,single-bedroom",None,24.99,None,1,1,121.0940939,14.28962026, Calm Residences,3275000,https://www.lamudi.com.ph/1-bedroom-condominium-unit-165951182760.html
For Sale: 3 Bedroom Unit at Royal Palm Residences Karon Tower in Taguig City,"Ususan, Taguig",Condominium,"Condominium,3-bedroom",None,120,1,3,2,121.065172,14.531149,Royal Palm Residences,12000000,https://www.lamudi.com.ph/for-sale-3-bedroom-unit-at-royal-palm-residences-k-165950924678.html
"Smart Homes 4 Bedrooms For Sale in Villa Kananga, Butuan, Agusan del Norte","Villa Kananga, Butuan",House,"House,single-family-house",147,176,1,4,3,125.5384633,8.9290268,None,12000000,https://www.lamudi.com.ph/smart-homes-4-bedrooms-for-sale-in-villa-kananga-b-16595381676.html
"For Sale! Residential 1 Bedroom Unit Marquee Residences, Angeles City, Pampanga","Pulung Maragul, Angeles",Condominium,"Condominium,single-bedroom",None,57,1,1,1,120.636935,15.152145,Marquee Residences,8000000,https://www.lamudi.com.ph/for-sale-residential-1-bedroom-unit-marquee-reside-165995021853.html
"Preselling 1 Bedroom Unit at Camella Manors Soleia, Butuan, Agusan del Norte","Villa Kananga, Butuan",Condominium,"Condominium,single-bedroom",None,30,None,1,1,125.5384633,8.9290268,Camella Manors Soleia,5387000,https://www.lamudi.com.ph/preselling-1-bedroom-unit-at-camella-manors-soleia-165997150058.html
"For Sale 120 sqm Lot Only at AMOA by Aboitizland in Compostela, Cebu","Cabadiangan, Compostela",Land,"Land,residential-lot",120,None,None,None,None,123.970576,10.453795,None,2398376,https://www.lamudi.com.ph/for-sale-120-sqm-lot-only-at-amoa-by-aboitizland-i-165951565772.html
For Sale 2 Bedroom Unit in Metrotowne Las Pinas near Alabang Westgate,"Talon Singko, Las Pinas",Condominium,"Condominium,double-bedroom",None,48,None,2,1,120.996723,14.422561,Metrotowne Condominium,5525000,https://www.lamudi.com.ph/for-sale-2-bedroom-unit-in-metrotowne-las-pi-as-ne-165977854156.html
"Casa Rosita Cebu 2 Story Single Detached, 4 Bedrooms For Sale","Banawa, Cebu",House,"House,single-family-house",280,298,None,4,4,123.8806862,10.3136942,None,37368000,https://www.lamudi.com.ph/casa-rosita-cebu-2-story-single-detached-4-bedroom-16595156917.html
140 sqm. Perimeter Lot for Sale in Villa Montserrat 1D - Taytay Rizal,"San Juan, Taytay",Land,"Land,residential-lot",140,None,None,None,None,121.123722,14.551401,None,3000000,https://www.lamudi.com.ph/140-sqm-perimeter-lot-for-sale-in-villa-montserrat-165948573816.html
4 bedrooms Skyvillas at One Balete Compound,"Kaunlaran, Quezon City",Condominium,"Condominium,4-bedroom",None,361,None,4,6,121.04641,14.617893,Skyvillas,81418499,https://www.lamudi.com.ph/4-bedrooms-skyvillas-at-one-balete-compound-165947155436.html
PROMO 17% DISCOUNT - Century Spire OFFICE 73.800 sqm,"Poblacion, Makati",Commercial,"Commercial,offices",0,73.8,None,None,None,121.032076,14.56568,None,15004850,https://www.lamudi.com.ph/promo-17-discount-century-spire-office-73-800-sqm-165945697493.html
"Affordable Townhouse for sale near Alabang - The Nook Binan, Laguna","San Francisco, Binan",House,"House,townhouse",38.62,42.9,None,2,1,121.0569025,14.33134603,None,2149664,https://www.lamudi.com.ph/affordable-townhouse-for-sale-near-alabang-the-noo-165954935779.html
"Studio type Condominium Unit For Sale in The Lerato, Makati City","Bel-Air, Makati",Condominium,"Condominium,studio",None,30,None,1,1,121.026342,14.563933,The Lerato,5500000,https://www.lamudi.com.ph/studio-type-condominium-unit-for-sale-in-makati-ci-165954045417.html
Sofia House 3 Bedroom Plaridel Heights Bulacan,"Lalangan, Plaridel",House,"House,single-family-house",75,120,None,3,2,120.8488475,14.8758815,None,5486000,https://www.lamudi.com.ph/sofia-house-3-bedroom-plaridel-heights-bulacan-165969765288.html
"Joy Residences I 1 Bedroom Unit Located at Baliuag City, Bulacan For Sale!","Pagala, Baliuag",Condominium,"Condominium,single-bedroom",None,24.41,None,1,1,120.8927513,14.96049336,Joy Residences,3048000,https://www.lamudi.com.ph/joy-residences-i-1-bedroom-unit-located-at-baliuag-16594359896.html
Apartment for sale in Philippines,Pagsanghan,Apartment,"Apartment,loft",None,None,None,2,None,124.7396672,11.9618385,None,1000000000,https://www.lamudi.com.ph/apartment-for-sale-in-philippines-165943423545.html
2 Bedroom Condominium Avida Towers New Manila near Ortigas & Cubao,"Bagong Lipunan Ng Crame, Quezon City",Condominium,"Condominium,double-bedroom",None,49.67,None,2,1,121.052143,14.60929,Avida Towers New Manila,4950000,https://www.lamudi.com.ph/2-bedroom-condominium-avida-towers-new-manila-near-165943139687.html
For Sale Split Level Semi-Furnished Elegant Modern Design Corner Single Attached,"Talon Dos, Las Pinas",House,"House,single-family-house",302,230,2,6,5,120.985214,14.438526,None,23000000,https://www.lamudi.com.ph/for-sale-split-level-semi-furnished-elegant-modern-165943070989.html
For Sale Brand new 2 Storey Spacious Duplex House in BF Resort Las Pinas City,"Talon Dos, Las Pinas",House,"House,townhouse",122,155,2,4,4,120.985214,14.438526,None,10500000,https://www.lamudi.com.ph/for-sale-brand-new-2-storey-spacious-duplex-house-165943049956.html
CityHomes Minglanilla Rent-To-Own Horizontal Condo for Sale,"Tunghaan, Minglanilla",House,"House,single-family-house",42,42,None,2,1,123.783387,10.24622,None,4438173,https://www.lamudi.com.ph/cityhomes-minglanilla-rent-to-own-horizontal-condo-165943042071.html
"5 Bedrooms House and Lot for Sale in Talisay City, Cebu","Pooc, Talisay",House,"House,single-family-house",195,251,None,5,3,123.823521,10.24271,None,14880000,https://www.lamudi.com.ph/5-bedrooms-house-and-lot-for-sale-in-talisay-city-165990001720.html
"725 sq.m. Commercial/Residential Lot For Sale at Kalayaan Ave., Makati City","Olympia, Makati",Land,"Land,commercial-lot",725,None,None,None,None,121.021325,14.57178,None,145000000,https://www.lamudi.com.ph/725-sq-m-commercial-lot-for-sale-at-kalayaan-ave-m-165953993478.html
"7 Bedroom Home for Sale in Maria Luisa Phase 1, Cebu City, Cebu","Banilad, Cebu",House,"House,single-family-house",1168,1500,None,7,None,123.91229,10.345495,None,100000000,https://www.lamudi.com.ph/7-bedroom-home-for-sale-in-maria-luisa-phase-1-ceb-165951849087.html
"5 bedrooms House and Lot with Swimming pool for sale in Los Banos, Laguna",Los Banos,House,"House,single-family-house",499,300,4,5,4,121.2295491,14.1690114,None,12000000,https://www.lamudi.com.ph/5-bedrooms-house-and-lot-with-swimming-pool-for-sa-165945898346.html
"Moldex Residences Baguio, For Sale Studio Unit with Balcony ( 10,700 Monthly )","Bakakeng Central, Baguio",Condominium,"Condominium,studio",None,28.8,None,1,1,120.5827294,16.39786434,Moldex Residences Baguio,4461811.2,https://www.lamudi.com.ph/moldex-residences-baguio-for-sale-studio-unit-with-165941348252.html
Office For Sale in Arca South,"Western Bicutan, Taguig",Commercial,"Commercial,offices",0,84,None,None,None,121.036376,14.517219,None,23439824.6,https://www.lamudi.com.ph/office-for-sale-in-arca-south-165950071327.html
1 Bedroom Penthouse Unit for Sale with Balcony at The Silk Residences Manila,"Santa Mesa, Manila",Condominium,"Condominium,penthouse-1",None,55.28,1,1,1,121.017867,14.5971795,The Silk Residences,8000000,https://www.lamudi.com.ph/1-bedroom-penthouse-unit-for-sale-with-balcony-at-165983071147.html
Studio Condominium unit @ Eton Tower Makati for Sale,"Legazpi Village, Makati",Condominium,"Condominium,studio",None,25.6,None,1,1,121.017742,14.554848,Eton Tower Makati,6500000,https://www.lamudi.com.ph/studio-condominium-unit-eton-tower-makati-for-sale-165941933841.html
